{
  "metadata": {
    "country": "Sri Lanka",
    "total_stations": 1802,
    "fetched_at": "2026-03-19T07:09:51.777Z",
    "source": "Google Places API",
    "search_method": "Comprehensive grid search",
    "grid_points_searched": 1835,
    "search_radius_km": 5
  },
  "gas_stations": [
    {
      "place_id": "ChIJtXBK4pNP4joRezfcoivRmPM",
      "name": "24 Hours Filling station ( Piliyandala )",
      "address": "26 Piliyandala Road, Piliyandala",
      "location": {
        "lat": 6.802227999999999,
        "lng": 79.9225493
      },
      "rating": 4,
      "user_ratings_total": 24,
      "business_status": "OPERATIONAL",
      "types": [
        "gas_station",
        "point_of_interest",
        "establishment"
      ],
      "opening_hours": null
    },
    {
      "place_id": "ChIJj8WDl90d4zoR9EEFgufShEc",
      "name": "2nd Mile Post",
      "address": "42 Horagasmankada - Algama Road",
      "location": {
        "lat": 7.1784273,
        "lng": 80.17494599999999
      },
      "rating": 5,
      "user_ratings_total": 1,
      "business_status": "OPERATIONAL",
      "types": [
        "gas_station",
        "point_of_interest",
        "establishment"
      ],
      "opening_hours": null
    },
    {
      "place_id": "ChIJqYQGEAD74joRrGKw4VBMcpQ",
      "name": "5,000 පෙට්‍රල් ශෙඩ් එක",
      "address": "3XFW+GFH, Gampaha",
      "location": {
        "lat": 7.073805000000001,
        "lng": 79.9962403
      },
      "rating": null,
      "user_ratings_total": 0,
      "business_status": "OPERATIONAL",
      "types": [
        "gas_station",
        "point_of_interest",
        "establishment"
      ],
      "opening_hours": null
    },
    {
      "place_id": "ChIJIx-MEQBZ4joRJm6MlYlyTbc",
      "name": "8 sed",
      "address": "84, St. Andrews Road, Mutuwal Dockland, Muthuwella Mawatha, Colombo",
      "location": {
        "lat": 6.959341999999999,
        "lng": 79.86006499999999
      },
      "rating": null,
      "user_ratings_total": 0,
      "business_status": "OPERATIONAL",
      "types": [
        "gas_station",
        "point_of_interest",
        "establishment"
      ],
      "opening_hours": null
    },
    {
      "place_id": "ChIJ19WRDwB_4ToRKz4BKV-7d74",
      "name": "95 Petrol Ceypetco",
      "address": "739X+CXV, Karandeniya",
      "location": {
        "lat": 6.268631999999998,
        "lng": 80.099813
      },
      "rating": null,
      "user_ratings_total": 0,
      "business_status": "OPERATIONAL",
      "types": [
        "gas_station",
        "point_of_interest",
        "establishment"
      ],
      "opening_hours": null
    },
    {
      "place_id": "ChIJ-9_LEoNd4zoRb_00nJXYjTw",
      "name": "A . Ranatunga & Son Filling Station",
      "address": "8MXJ+WFP, Wattegama",
      "location": {
        "lat": 7.349825900000001,
        "lng": 80.6812173
      },
      "rating": 3.6,
      "user_ratings_total": 53,
      "business_status": "OPERATIONAL",
      "types": [
        "gas_station",
        "point_of_interest",
        "establishment"
      ],
      "opening_hours": {
        "open_now": true
      }
    },
    {
      "place_id": "ChIJ1xiEbajf4joRimAnwHtI6tI",
      "name": "A A FILLING STATION",
      "address": "Kuliyapitiya - Yakwila - Hamangalla Road, Puskoladeniya",
      "location": {
        "lat": 7.392984999999999,
        "lng": 80.038653
      },
      "rating": 4,
      "user_ratings_total": 49,
      "business_status": "OPERATIONAL",
      "types": [
        "gas_station",
        "point_of_interest",
        "establishment"
      ],
      "opening_hours": {
        "open_now": true
      }
    },
    {
      "place_id": "ChIJdUlbrlD1_DoR8JET8_Ywo9c",
      "name": "A de S Jayawardana Filling Station",
      "address": "8CQ7+QWV, Anuradhapura",
      "location": {
        "lat": 8.339482999999998,
        "lng": 80.4149685
      },
      "rating": 3.1,
      "user_ratings_total": 8,
      "business_status": "OPERATIONAL",
      "types": [
        "gas_station",
        "point_of_interest",
        "establishment"
      ],
      "opening_hours": {
        "open_now": true
      }
    },
    {
      "place_id": "ChIJeeqXDYNN4ToRXBAF8cJWfjo",
      "name": "A K Filling Station - CEYPETCO",
      "address": "4QX6+HP5, Weeraketiya",
      "location": {
        "lat": 6.1488752,
        "lng": 80.76184649999999
      },
      "rating": 4,
      "user_ratings_total": 83,
      "business_status": "OPERATIONAL",
      "types": [
        "gas_station",
        "point_of_interest",
        "establishment"
      ],
      "opening_hours": {
        "open_now": true
      }
    },
    {
      "place_id": "ChIJ-Y27UQBR4joRsu_9qz0SNFY",
      "name": "A R I Technic",
      "address": "160B Deniya Road, Panadura",
      "location": {
        "lat": 6.885027399999999,
        "lng": 79.9397067
      },
      "rating": 5,
      "user_ratings_total": 1,
      "business_status": "OPERATIONAL",
      "types": [
        "gas_station",
        "point_of_interest",
        "establishment"
      ],
      "opening_hours": null
    },
    {
      "place_id": "ChIJHYIvhvJt_ToRZ6puFiO4Yhs",
      "name": "A U S JUNAID & SON'S",
      "address": "4P7J+GX, Etalai",
      "location": {
        "lat": 8.113774,
        "lng": 79.73244799999999
      },
      "rating": null,
      "user_ratings_total": 0,
      "business_status": "OPERATIONAL",
      "types": [
        "gas_station",
        "point_of_interest",
        "establishment"
      ],
      "opening_hours": {
        "open_now": true
      }
    },
    {
      "place_id": "ChIJlwNagXpn4zoR4JuuC-6_Jck",
      "name": "A W DAVITH APPUHAMY & SONS IOC Lanka Fuel Filling station",
      "address": "No. 124 East L Senanayake Veediya, Kandy",
      "location": {
        "lat": 7.296812999999999,
        "lng": 80.6367458
      },
      "rating": 2.3,
      "user_ratings_total": 6,
      "business_status": "OPERATIONAL",
      "types": [
        "gas_station",
        "point_of_interest",
        "establishment"
      ],
      "opening_hours": {
        "open_now": true
      }
    },
    {
      "place_id": "ChIJ6Tff_IIv4joRcUxXmYGVaHs",
      "name": "A. M. Enterprises (pvt) ltd. Ceypetco",
      "address": "264 Galle Road, Beruwala",
      "location": {
        "lat": 6.467880099999999,
        "lng": 79.9860164
      },
      "rating": 4.1,
      "user_ratings_total": 16,
      "business_status": "OPERATIONAL",
      "types": [
        "gas_station",
        "car_wash",
        "car_repair",
        "store",
        "point_of_interest",
        "establishment"
      ],
      "opening_hours": {
        "open_now": true
      }
    },
    {
      "place_id": "ChIJ32gxeACB4zoRWiv4O7EtYFc",
      "name": "A. V. D. B. K. Senaviratne Ceypetco Fuel Station",
      "address": "119 Nuwara Eliya-Uda Pussellawa Road, Nuwara Eliya",
      "location": {
        "lat": 6.9724768,
        "lng": 80.7768025
      },
      "rating": 5,
      "user_ratings_total": 1,
      "business_status": "OPERATIONAL",
      "types": [
        "gas_station",
        "point_of_interest",
        "establishment"
      ],
      "opening_hours": {
        "open_now": true
      }
    },
    {
      "place_id": "ChIJNQvZQf7D4joRnsQxWrjO7Nk",
      "name": "A.D.A.Francis Appuhamy Sinopec Filling Station Mudukatuwa",
      "address": "CR3J+GGV, Chilaw - Colombo Main Road, Marawila",
      "location": {
        "lat": 7.4038666,
        "lng": 79.8313057
      },
      "rating": 4.1,
      "user_ratings_total": 109,
      "business_status": "OPERATIONAL",
      "types": [
        "gas_station",
        "point_of_interest",
        "establishment"
      ],
      "opening_hours": {
        "open_now": true
      }
    },
    {
      "place_id": "ChIJRWqJqK9B5DoRYCUPnTP3zLE",
      "name": "A.H.WIMALATUNGA & SON BUTTALA LANKA IOC FUEL FILLING STATION",
      "address": "159 Rajamawatha, Buttala",
      "location": {
        "lat": 6.7535304,
        "lng": 81.24991969999999
      },
      "rating": 4.8,
      "user_ratings_total": 10,
      "business_status": "OPERATIONAL",
      "types": [
        "gas_station",
        "point_of_interest",
        "establishment"
      ],
      "opening_hours": {
        "open_now": true
      }
    },
    {
      "place_id": "ChIJV1kDhpG_4zoRQO-xJJme4ck",
      "name": "A.L.G Gonakumbura Filling Station",
      "address": "Colombo - Batticaloa Highway, Ratnapura",
      "location": {
        "lat": 6.668816799999999,
        "lng": 80.42678029999999
      },
      "rating": 3.5,
      "user_ratings_total": 66,
      "business_status": "OPERATIONAL",
      "types": [
        "gas_station",
        "point_of_interest",
        "establishment"
      ],
      "opening_hours": {
        "open_now": true
      }
    },
    {
      "place_id": "ChIJiVI4p2AN5ToRBeMrXgFOhgE",
      "name": "A.Rasamany Fuel station",
      "address": "5RQV+7MG",
      "location": {
        "lat": 7.188187999999999,
        "lng": 81.84419799999999
      },
      "rating": 4.3,
      "user_ratings_total": 6,
      "business_status": "OPERATIONAL",
      "types": [
        "gas_station",
        "point_of_interest",
        "establishment"
      ],
      "opening_hours": {
        "open_now": true
      }
    },
    {
      "place_id": "ChIJTym7NQCD4zoR6glQXIM04D0",
      "name": "A.V.Hinniappuhamy & Co.",
      "address": "No.98, Nuwara Eliya, road, Talawakelle",
      "location": {
        "lat": 6.9361121,
        "lng": 80.6612526
      },
      "rating": null,
      "user_ratings_total": 0,
      "business_status": "OPERATIONAL",
      "types": [
        "gas_station",
        "point_of_interest",
        "establishment"
      ],
      "opening_hours": null
    },
    {
      "place_id": "ChIJd62ljzed-zoRuTv_zGAMmMM",
      "name": "A6 service Area",
      "address": "F325+3RX, Mullipotana",
      "location": {
        "lat": 8.4502402,
        "lng": 81.05959589999999
      },
      "rating": null,
      "user_ratings_total": 0,
      "business_status": "OPERATIONAL",
      "types": [
        "gas_station",
        "point_of_interest",
        "establishment"
      ],
      "opening_hours": null
    },
    {
      "place_id": "ChIJt-B31e4S5ToRaQqAZ-tYNjs",
      "name": "Abdul Razeen Filling Station",
      "address": "Akkaraipattu - Warapathanchenai, Akkaraipattu",
      "location": {
        "lat": 7.221765899999999,
        "lng": 81.8387388
      },
      "rating": 4.1,
      "user_ratings_total": 8,
      "business_status": "OPERATIONAL",
      "types": [
        "gas_station",
        "point_of_interest",
        "establishment"
      ],
      "opening_hours": {
        "open_now": true
      }
    },
    {
      "place_id": "ChIJGQ4RrpU_5ToRd-7j6IyEDAg",
      "name": "Abdullah Treders",
      "address": "9R83+2PC, Sammanthurai",
      "location": {
        "lat": 7.365060799999999,
        "lng": 81.804278
      },
      "rating": 4,
      "user_ratings_total": 1,
      "business_status": "OPERATIONAL",
      "types": [
        "gas_station",
        "point_of_interest",
        "establishment"
      ],
      "opening_hours": null
    },
    {
      "place_id": "ChIJGyMnuHdX4joRXGlydTiKBV4",
      "name": "Abeykoon Gas Center (Litro Gas)",
      "address": "Abeykoon Gas Center, 286/29/D Koskumburawatta Road, Gonawala",
      "location": {
        "lat": 6.9554018,
        "lng": 79.93130959999999
      },
      "rating": 4.4,
      "user_ratings_total": 8,
      "business_status": "OPERATIONAL",
      "types": [
        "gas_station",
        "point_of_interest",
        "establishment"
      ],
      "opening_hours": {
        "open_now": true
      }
    },
    {
      "place_id": "ChIJF_T1cmc54ToRCUU0shD2xvU",
      "name": "Abeysooriya filling station",
      "address": "WJP6+CGG, Gandara",
      "location": {
        "lat": 5.9360512,
        "lng": 80.6113163
      },
      "rating": 4.2,
      "user_ratings_total": 19,
      "business_status": "OPERATIONAL",
      "types": [
        "gas_station",
        "point_of_interest",
        "establishment"
      ],
      "opening_hours": {
        "open_now": true
      }
    },
    {
      "place_id": "ChIJW9umNsTw4joRFTzfOSUtNDo",
      "name": "AESL Ja-Ela Charging Station",
      "address": "3V9V+QHF, Ja-Ela",
      "location": {
        "lat": 7.0694307,
        "lng": 79.8939108
      },
      "rating": 3.9,
      "user_ratings_total": 12,
      "business_status": "CLOSED_TEMPORARILY",
      "types": [
        "gas_station",
        "point_of_interest",
        "establishment"
      ],
      "opening_hours": null
    },
    {
      "place_id": "ChIJj_G1fgCF4zoR7cCObSfo3us",
      "name": "Agarapathana IOC Filling Station",
      "address": "Sutton B Estate, Agrapatana",
      "location": {
        "lat": 6.8625386,
        "lng": 80.71632009999999
      },
      "rating": 4,
      "user_ratings_total": 2,
      "business_status": "OPERATIONAL",
      "types": [
        "gas_station",
        "point_of_interest",
        "establishment"
      ],
      "opening_hours": null
    },
    {
      "place_id": "ChIJA3PtDTcd4zoRE3IfFc9XFBA",
      "name": "Agra Enterprise (Pvt) Ltd, SINOPEC Filling Station",
      "address": "27 Kandy Road, Pasyala",
      "location": {
        "lat": 7.167753299999999,
        "lng": 80.1240887
      },
      "rating": 4.1,
      "user_ratings_total": 66,
      "business_status": "OPERATIONAL",
      "types": [
        "gas_station",
        "point_of_interest",
        "establishment"
      ],
      "opening_hours": {
        "open_now": true
      }
    },
    {
      "place_id": "ChIJfQPacXMq4joRgwpqljEE42E",
      "name": "Ahungalla Petrol Station6",
      "address": "828M+RCX, AH43, Ahungalla",
      "location": {
        "lat": 6.317100399999999,
        "lng": 80.0335946
      },
      "rating": 4,
      "user_ratings_total": 40,
      "business_status": "OPERATIONAL",
      "types": [
        "gas_station",
        "point_of_interest",
        "establishment"
      ],
      "opening_hours": null
    },
    {
      "place_id": "ChIJm7cV-kn1_DoRcddK2srzWJE",
      "name": "Airforce Welfare Filling Station",
      "address": "Anuradhapura",
      "location": {
        "lat": 8.3560311,
        "lng": 80.416902
      },
      "rating": 4,
      "user_ratings_total": 24,
      "business_status": "OPERATIONAL",
      "types": [
        "gas_station",
        "point_of_interest",
        "establishment"
      ],
      "opening_hours": {
        "open_now": true
      }
    },
    {
      "place_id": "ChIJt8tP0VMY4zoRf8MwxwnShOU",
      "name": "Alawwa Coperative Filling Station",
      "address": "76VR+M34, B9, Alawwa",
      "location": {
        "lat": 7.294131700000001,
        "lng": 80.2402177
      },
      "rating": 3.7,
      "user_ratings_total": 43,
      "business_status": "OPERATIONAL",
      "types": [
        "gas_station",
        "point_of_interest",
        "establishment"
      ],
      "opening_hours": {
        "open_now": true
      }
    },
    {
      "place_id": "ChIJFVBLWgDp4joRH7-_pOTKzPM",
      "name": "ALS Fuel Mart Ethgala",
      "address": "7V2C+PR2, Ethgala",
      "location": {
        "lat": 7.251773099999998,
        "lng": 79.87202959999999
      },
      "rating": 4.7,
      "user_ratings_total": 6,
      "business_status": "OPERATIONAL",
      "types": [
        "gas_station",
        "point_of_interest",
        "establishment"
      ],
      "opening_hours": {
        "open_now": true
      }
    },
    {
      "place_id": "ChIJRQoBa_FV_joRVUyaHhrecAg",
      "name": "AM Thananayagham Filling Station",
      "address": "P228+899, Kokkuvil",
      "location": {
        "lat": 9.7007885,
        "lng": 80.0159933
      },
      "rating": 4.8,
      "user_ratings_total": 5,
      "business_status": "OPERATIONAL",
      "types": [
        "gas_station",
        "point_of_interest",
        "establishment"
      ],
      "opening_hours": {
        "open_now": true
      }
    },
    {
      "place_id": "ChIJW4sD7IGB4ToRZKCSOAl7-ro",
      "name": "Ambalangoda IOC Fuel filling station",
      "address": "Ambalangoda",
      "location": {
        "lat": 6.2326302,
        "lng": 80.0545607
      },
      "rating": 2.9,
      "user_ratings_total": 28,
      "business_status": "OPERATIONAL",
      "types": [
        "gas_station",
        "point_of_interest",
        "establishment"
      ],
      "opening_hours": {
        "open_now": true
      }
    },
    {
      "place_id": "ChIJFSIpKfm65joR-PnFNrmQ3mg",
      "name": "Ambalantota Filling Station",
      "address": "42FG+33C, Beragama Road, Ambalantota",
      "location": {
        "lat": 6.1226765,
        "lng": 81.0251439
      },
      "rating": 3.8,
      "user_ratings_total": 110,
      "business_status": "OPERATIONAL",
      "types": [
        "gas_station",
        "point_of_interest",
        "establishment"
      ],
      "opening_hours": {
        "open_now": true
      }
    },
    {
      "place_id": "ChIJ22dL6weP4zoR-eeaIY214-A",
      "name": "AMBALS",
      "address": "QMWH+G8F, Norwood-Bogawantalawa-Campion Road, Bogawantalawa",
      "location": {
        "lat": 6.796317999999999,
        "lng": 80.67830440000002
      },
      "rating": 5,
      "user_ratings_total": 2,
      "business_status": "OPERATIONAL",
      "types": [
        "gas_station",
        "point_of_interest",
        "establishment"
      ],
      "opening_hours": null
    },
    {
      "place_id": "ChIJI3lM3R0T4zoRI-kvxNPiPaA",
      "name": "Amila gas point litro",
      "address": "6CC5+3HC, Athtanagoda road,Thuththiripitiya,Galathara, Mawanella, Evunugalle",
      "location": {
        "lat": 7.2201803,
        "lng": 80.40887579999999
      },
      "rating": 5,
      "user_ratings_total": 1,
      "business_status": "OPERATIONAL",
      "types": [
        "gas_station",
        "point_of_interest",
        "establishment"
      ],
      "opening_hours": null
    },
    {
      "place_id": "ChIJMzjyTmUZ5ToR5MA_LGI0W3Y",
      "name": "Amila Oilmart",
      "address": "9J5V+96X, Ampara-Uhana-Maha Oya Highway, Uhana",
      "location": {
        "lat": 7.3584774,
        "lng": 81.6431205
      },
      "rating": null,
      "user_ratings_total": 0,
      "business_status": "OPERATIONAL",
      "types": [
        "gas_station",
        "point_of_interest",
        "establishment"
      ],
      "opening_hours": {
        "open_now": true
      }
    },
    {
      "place_id": "ChIJkVe7918Z5ToRhg2Ry1L9sfo",
      "name": "Ampara",
      "address": "7/B 59 abagahawela,paragakale, අම්පාර",
      "location": {
        "lat": 7.301756300000003,
        "lng": 81.6747295
      },
      "rating": null,
      "user_ratings_total": 0,
      "business_status": "OPERATIONAL",
      "types": [
        "gas_station",
        "point_of_interest",
        "establishment"
      ],
      "opening_hours": null
    },
    {
      "place_id": "ChIJbYCe-jEV_DoRWlUyJN1hCkg",
      "name": "AMT Ceypetco Filling Station",
      "address": "A9, Vavuniya",
      "location": {
        "lat": 8.7226961,
        "lng": 80.487573
      },
      "rating": 4,
      "user_ratings_total": 72,
      "business_status": "OPERATIONAL",
      "types": [
        "gas_station",
        "point_of_interest",
        "establishment"
      ],
      "opening_hours": {
        "open_now": true
      }
    },
    {
      "place_id": "ChIJGzgA2zg_5ToRSSRxfrvKEu4",
      "name": "ANA LANKA PETROL FUELED STATION",
      "address": "203 Main Street, Kalmunai",
      "location": {
        "lat": 7.406062999999999,
        "lng": 81.83097339999999
      },
      "rating": 3,
      "user_ratings_total": 1,
      "business_status": "OPERATIONAL",
      "types": [
        "gas_station",
        "point_of_interest",
        "establishment"
      ],
      "opening_hours": {
        "open_now": true
      }
    },
    {
      "place_id": "ChIJVVX5XEI44ToR3ZNV0l-PBig",
      "name": "Ananda Filling Station - Kekanadura",
      "address": "XJ73+V3G, Meddewatte-Kekanadure-Yatiyana Road, Kekanadura",
      "location": {
        "lat": 5.964694499999999,
        "lng": 80.6027036
      },
      "rating": null,
      "user_ratings_total": 0,
      "business_status": "OPERATIONAL",
      "types": [
        "gas_station",
        "point_of_interest",
        "establishment"
      ],
      "opening_hours": null
    },
    {
      "place_id": "ChIJk85hbN01_ToRt6qkMJKuB2Y",
      "name": "Anawilundawa CEYPETCO fuel station",
      "address": "Puttalam - Colombo Road, Anawilundawa",
      "location": {
        "lat": 7.700556300000001,
        "lng": 79.82887550000001
      },
      "rating": 3.8,
      "user_ratings_total": 18,
      "business_status": "OPERATIONAL",
      "types": [
        "gas_station",
        "point_of_interest",
        "establishment"
      ],
      "opening_hours": {
        "open_now": true
      }
    },
    {
      "place_id": "ChIJZSS9smeX5DoRgASr9JaXhxs",
      "name": "Andaulpotha Filling Station",
      "address": "739F+94M, Andaulpotha",
      "location": {
        "lat": 7.269280600000001,
        "lng": 81.07333679999999
      },
      "rating": 3.4,
      "user_ratings_total": 10,
      "business_status": "OPERATIONAL",
      "types": [
        "gas_station",
        "point_of_interest",
        "establishment"
      ],
      "opening_hours": {
        "open_now": true
      }
    },
    {
      "place_id": "ChIJ7fpr9zkT5ToRB8nosCNbZPc",
      "name": "Aqsha Lanka Fuel Mart",
      "address": "7V23+PQV, Addalaichenai",
      "location": {
        "lat": 7.251868699999999,
        "lng": 81.8544129
      },
      "rating": 4.5,
      "user_ratings_total": 10,
      "business_status": "OPERATIONAL",
      "types": [
        "gas_station",
        "point_of_interest",
        "establishment"
      ],
      "opening_hours": null
    },
    {
      "place_id": "ChIJ904wJUVy4ToRhGNnXorZWLo",
      "name": "Aradhana Filling Station",
      "address": "Southern highway, entrance rd, Nugadhuwa",
      "location": {
        "lat": 6.0338897,
        "lng": 80.24547989999999
      },
      "rating": 4.3,
      "user_ratings_total": 477,
      "business_status": "OPERATIONAL",
      "types": [
        "gas_station",
        "point_of_interest",
        "establishment"
      ],
      "opening_hours": {
        "open_now": true
      }
    },
    {
      "place_id": "ChIJBQgIAtYP5DoRl07nRk3xt-c",
      "name": "Arambekema Filling Station",
      "address": "Bodagama-Hambegamuwa-Kaltota Road",
      "location": {
        "lat": 6.5343753,
        "lng": 80.9871045
      },
      "rating": 3.7,
      "user_ratings_total": 17,
      "business_status": "OPERATIONAL",
      "types": [
        "gas_station",
        "point_of_interest",
        "establishment"
      ],
      "opening_hours": null
    },
    {
      "place_id": "ChIJzY6ja0Ux5ToRYRJXHJua43E",
      "name": "Arasaditivu Petrol Station",
      "address": "JP36+WX6, Batticaloa",
      "location": {
        "lat": 7.604960000000002,
        "lng": 81.71255000000001
      },
      "rating": 3,
      "user_ratings_total": 2,
      "business_status": "OPERATIONAL",
      "types": [
        "gas_station",
        "point_of_interest",
        "establishment"
      ],
      "opening_hours": null
    },
    {
      "place_id": "ChIJGYk4Z_0y5ToRNWO4Npn8zqA",
      "name": "Arayampathi Gas Station",
      "address": "MPCM+HRH, Kattankudy",
      "location": {
        "lat": 7.671427999999999,
        "lng": 81.7346185
      },
      "rating": 3.3,
      "user_ratings_total": 13,
      "business_status": "OPERATIONAL",
      "types": [
        "gas_station",
        "point_of_interest",
        "establishment"
      ],
      "opening_hours": null
    },
    {
      "place_id": "ChIJx6OatwwN_ToRRtS1DPtAD1Q",
      "name": "ARDHIL ENTERPRISES",
      "address": "Main Street, Kalpitiya",
      "location": {
        "lat": 8.236207,
        "lng": 79.7652401
      },
      "rating": 5,
      "user_ratings_total": 1,
      "business_status": "OPERATIONAL",
      "types": [
        "gas_station",
        "point_of_interest",
        "establishment"
      ],
      "opening_hours": {
        "open_now": true
      }
    },
    {
      "place_id": "ChIJBROJyI454zoRsqDGIyUliSM",
      "name": "Ariyadasa Filling Station",
      "address": "Kurunegala",
      "location": {
        "lat": 7.477187499999999,
        "lng": 80.3720625
      },
      "rating": 4.2,
      "user_ratings_total": 60,
      "business_status": "OPERATIONAL",
      "types": [
        "gas_station",
        "point_of_interest",
        "establishment"
      ],
      "opening_hours": {
        "open_now": true
      }
    },
    {
      "place_id": "ChIJ5SIDdf5v5DoRTkb-XuuHTBs",
      "name": "ARIYADASA FILLING STATION",
      "address": "Welimada Road, Bandarawela",
      "location": {
        "lat": 6.8324539,
        "lng": 80.9859025
      },
      "rating": 4.2,
      "user_ratings_total": 30,
      "business_status": "OPERATIONAL",
      "types": [
        "gas_station",
        "point_of_interest",
        "establishment"
      ],
      "opening_hours": null
    },
    {
      "place_id": "ChIJ4dMHVQAD4zoR3xCwnK072Pw",
      "name": "Aththanagalla filing sstation",
      "address": "447P+92F, Hunupola",
      "location": {
        "lat": 7.112843299999999,
        "lng": 80.1350357
      },
      "rating": null,
      "user_ratings_total": 0,
      "business_status": "OPERATIONAL",
      "types": [
        "gas_station",
        "point_of_interest",
        "establishment"
      ],
      "opening_hours": null
    },
    {
      "place_id": "ChIJK3Jcsrcl4zoRPK1-e7YGtkU",
      "name": "Auto Garage Mahinda",
      "address": "F5JR+Q3F",
      "location": {
        "lat": 7.4819355,
        "lng": 80.1901642
      },
      "rating": 4,
      "user_ratings_total": 1,
      "business_status": "OPERATIONAL",
      "types": [
        "gas_station",
        "point_of_interest",
        "establishment"
      ],
      "opening_hours": null
    },
    {
      "place_id": "ChIJ49XDACpb4joRwnUshwIrSJw",
      "name": "Auto Miraj Ratmalana",
      "address": "415 Galle Road, Dehiwala-Mount Lavinia",
      "location": {
        "lat": 6.822778500000001,
        "lng": 79.87962069999999
      },
      "rating": 3.9,
      "user_ratings_total": 106,
      "business_status": "OPERATIONAL",
      "types": [
        "car_wash",
        "gas_station",
        "point_of_interest",
        "establishment"
      ],
      "opening_hours": {
        "open_now": true
      }
    },
    {
      "place_id": "ChIJ0UOA89Ih4zoRc5kaMw-Bbfo",
      "name": "AYUBOWAN GAS STATION",
      "address": "Galkade junction, Kuliyapitiya Road, Dambadeniya",
      "location": {
        "lat": 7.377018199999999,
        "lng": 80.1330183
      },
      "rating": null,
      "user_ratings_total": 0,
      "business_status": "OPERATIONAL",
      "types": [
        "gas_station",
        "point_of_interest",
        "establishment"
      ],
      "opening_hours": null
    },
    {
      "place_id": "ChIJt4CsBZNR4joRS5e2FU5cEyo",
      "name": "B & S Auto Enterprises Ceypetco fuel",
      "address": "RXRV+2MV, Avissawella Road, Homagama",
      "location": {
        "lat": 6.8399046,
        "lng": 79.9942446
      },
      "rating": 3.6,
      "user_ratings_total": 304,
      "business_status": "OPERATIONAL",
      "types": [
        "gas_station",
        "point_of_interest",
        "establishment"
      ],
      "opening_hours": {
        "open_now": true
      }
    },
    {
      "place_id": "ChIJDWzG9MSt_DoR2mDvTRAeFQQ",
      "name": "B.H Parakum Lanka Filling Station",
      "address": "QM56+HJ5, A9, Lendora",
      "location": {
        "lat": 7.7588868,
        "lng": 80.6616178
      },
      "rating": 3.7,
      "user_ratings_total": 102,
      "business_status": "OPERATIONAL",
      "types": [
        "gas_station",
        "restaurant",
        "food",
        "point_of_interest",
        "establishment"
      ],
      "opening_hours": {
        "open_now": true
      }
    },
    {
      "place_id": "ChIJhUawPwBR5DoRPRi7obcxsTM",
      "name": "B.S.I JAYASENA LANKA FILLING STATION",
      "address": "V82J+4V7, Colombo - Ratnapura - Wellawaya - Batticaloa Road, Monaragala",
      "location": {
        "lat": 6.865806799999999,
        "lng": 81.3456783
      },
      "rating": null,
      "user_ratings_total": 0,
      "business_status": "OPERATIONAL",
      "types": [
        "gas_station",
        "point_of_interest",
        "establishment"
      ],
      "opening_hours": {
        "open_now": true
      }
    },
    {
      "place_id": "ChIJEe7CRZ5t4zoR8IrvETseAeQ",
      "name": "Babasena Filling Station",
      "address": "5F95+XG6, Dippitiya",
      "location": {
        "lat": 7.169908400000001,
        "lng": 80.458771
      },
      "rating": 4.1,
      "user_ratings_total": 8,
      "business_status": "OPERATIONAL",
      "types": [
        "gas_station",
        "point_of_interest",
        "establishment"
      ],
      "opening_hours": null
    },
    {
      "place_id": "ChIJ8SFNCW9c5DoR9Xjn90VVIaM",
      "name": "Badalkumbura Petrol Station",
      "address": "V6WP+6R5, Passara-Moneragala Highway, Badalkumbura",
      "location": {
        "lat": 6.895514100000001,
        "lng": 81.2371051
      },
      "rating": 3.8,
      "user_ratings_total": 43,
      "business_status": "OPERATIONAL",
      "types": [
        "gas_station",
        "point_of_interest",
        "establishment"
      ],
      "opening_hours": null
    },
    {
      "place_id": "ChIJ80WujBVi5DoRV9ZjVZ_Qrwg",
      "name": "Badulla co-operative Ceypetco Fuel Station",
      "address": "King's Street, Badulla",
      "location": {
        "lat": 6.986625099999999,
        "lng": 81.05749639999999
      },
      "rating": 3.8,
      "user_ratings_total": 20,
      "business_status": "OPERATIONAL",
      "types": [
        "gas_station",
        "point_of_interest",
        "establishment"
      ],
      "opening_hours": {
        "open_now": true
      }
    },
    {
      "place_id": "ChIJ5Rv5z1LO4zoR0wnQr3CJRe0",
      "name": "Baduraliya Co-operative Fuel Shed",
      "address": "108/1 Tiruwanaketiya-Agalawatte Road, Lathpandura",
      "location": {
        "lat": 6.517331700000001,
        "lng": 80.2309502
      },
      "rating": 3.6,
      "user_ratings_total": 34,
      "business_status": "OPERATIONAL",
      "types": [
        "gas_station",
        "point_of_interest",
        "establishment"
      ],
      "opening_hours": {
        "open_now": true
      }
    },
    {
      "place_id": "ChIJl-ye_gNW-zoREYzNq3igsIc",
      "name": "Bakamuna Cooperative Fuel Station",
      "address": "QRH8+64M, Giritale Road, Bakamuna",
      "location": {
        "lat": 7.7780837,
        "lng": 80.8153009
      },
      "rating": 4.2,
      "user_ratings_total": 26,
      "business_status": "OPERATIONAL",
      "types": [
        "gas_station",
        "point_of_interest",
        "establishment"
      ],
      "opening_hours": null
    },
    {
      "place_id": "ChIJJf9no_dn4zoRIBxx2-3X3yI",
      "name": "Balagolla Filling Station",
      "address": "7PMC+6G9, Balagolla",
      "location": {
        "lat": 7.283026999999999,
        "lng": 80.72136859999999
      },
      "rating": 4.2,
      "user_ratings_total": 123,
      "business_status": "OPERATIONAL",
      "types": [
        "gas_station",
        "point_of_interest",
        "establishment"
      ],
      "opening_hours": null
    },
    {
      "place_id": "ChIJAQBApsRb4joRkKUTgDEx5E4",
      "name": "Bambalapitiya Filling Station",
      "address": "VVP5+R5P, Galle Road, Colombo",
      "location": {
        "lat": 6.8870872,
        "lng": 79.85794530000001
      },
      "rating": 4.3,
      "user_ratings_total": 27,
      "business_status": "OPERATIONAL",
      "types": [
        "gas_station",
        "point_of_interest",
        "establishment"
      ],
      "opening_hours": {
        "open_now": true
      }
    },
    {
      "place_id": "ChIJl3eouQlZ4joRv34AKl3qihA",
      "name": "Banadra Trading International Pvt ltd",
      "address": "155 Main Street, Battaramulla",
      "location": {
        "lat": 6.902337999999999,
        "lng": 79.9173879
      },
      "rating": 4.7,
      "user_ratings_total": 3,
      "business_status": "OPERATIONAL",
      "types": [
        "gas_station",
        "point_of_interest",
        "establishment"
      ],
      "opening_hours": null
    },
    {
      "place_id": "ChIJ92jLSwv84joRRyO8J4eocy8",
      "name": "Bandarawatta Agencies",
      "address": "32R7+W7J, A33, Gampaha",
      "location": {
        "lat": 7.092327399999999,
        "lng": 80.0131488
      },
      "rating": 3.7,
      "user_ratings_total": 6,
      "business_status": "OPERATIONAL",
      "types": [
        "gas_station",
        "point_of_interest",
        "establishment"
      ],
      "opening_hours": null
    },
    {
      "place_id": "ChIJq6o-Ef5v5DoRzPsnR3Gy_MM",
      "name": "Bandarawela M P C S Gas Station",
      "address": "RXJQ+Q67, Esplanade Road, Bandarawela",
      "location": {
        "lat": 6.831922499999999,
        "lng": 80.9880355
      },
      "rating": 5,
      "user_ratings_total": 3,
      "business_status": "OPERATIONAL",
      "types": [
        "gas_station",
        "point_of_interest",
        "establishment"
      ],
      "opening_hours": null
    },
    {
      "place_id": "ChIJd94tznnL4joRWbBV_6OdbyI",
      "name": "Bangadeniya Fuel Station",
      "address": "JRF9+QM4, Bangadeniya",
      "location": {
        "lat": 7.624377699999999,
        "lng": 79.8192066
      },
      "rating": 3.5,
      "user_ratings_total": 43,
      "business_status": "OPERATIONAL",
      "types": [
        "gas_station",
        "point_of_interest",
        "establishment"
      ],
      "opening_hours": null
    },
    {
      "place_id": "ChIJIejUOADV4joR2S3q_BNCWhU",
      "name": "Barampala handiya",
      "address": "Barampola",
      "location": {
        "lat": 7.598107199999999,
        "lng": 80.0325338
      },
      "rating": null,
      "user_ratings_total": 0,
      "business_status": "OPERATIONAL",
      "types": [
        "gas_station",
        "point_of_interest",
        "establishment"
      ],
      "opening_hours": null
    },
    {
      "place_id": "ChIJq5gsldfL4joRNElcOosFltc",
      "name": "Bas Fuel Station",
      "address": "HQFW+WH2, A3, Chilaw",
      "location": {
        "lat": 7.574763000000001,
        "lng": 79.79640049999999
      },
      "rating": 3.7,
      "user_ratings_total": 63,
      "business_status": "OPERATIONAL",
      "types": [
        "gas_station",
        "point_of_interest",
        "establishment"
      ],
      "opening_hours": {
        "open_now": true
      }
    },
    {
      "place_id": "ChIJP4m4hJ7T_DoRfp9bxqMQkqU",
      "name": "Base st",
      "address": "P7J8+5R8, Unnamed Road, Ella",
      "location": {
        "lat": 7.730420999999999,
        "lng": 80.267091
      },
      "rating": 2,
      "user_ratings_total": 1,
      "business_status": "OPERATIONAL",
      "types": [
        "gas_station",
        "point_of_interest",
        "establishment"
      ],
      "opening_hours": null
    },
    {
      "place_id": "ChIJrYb8kuh54ToRJhVKXhwHK1E",
      "name": "Batapol",
      "address": "64F7+MGG",
      "location": {
        "lat": 6.2241821,
        "lng": 80.1138369
      },
      "rating": null,
      "user_ratings_total": 0,
      "business_status": "OPERATIONAL",
      "types": [
        "gas_station",
        "point_of_interest",
        "establishment"
      ],
      "opening_hours": null
    },
    {
      "place_id": "ChIJwW8O0xGL4zoRD1MKhWZbFmw",
      "name": "Belihuloya Fuel Station ( Ceypetco)",
      "address": "PQCP+FFM, Belihuloya",
      "location": {
        "lat": 6.7212157,
        "lng": 80.7861604
      },
      "rating": 4.2,
      "user_ratings_total": 116,
      "business_status": "OPERATIONAL",
      "types": [
        "gas_station",
        "point_of_interest",
        "establishment"
      ],
      "opening_hours": {
        "open_now": true
      }
    },
    {
      "place_id": "ChIJg7rdHY384joRagqUMAjf_vk",
      "name": "Bemmulla CEYPETCO Filling Station",
      "address": "42CH+VPX, Aluthgama-Wigoda Road, Bemmulla",
      "location": {
        "lat": 7.122249099999999,
        "lng": 80.02936009999999
      },
      "rating": 3.3,
      "user_ratings_total": 59,
      "business_status": "OPERATIONAL",
      "types": [
        "gas_station",
        "point_of_interest",
        "establishment"
      ],
      "opening_hours": {
        "open_now": true
      }
    },
    {
      "place_id": "ChIJw7dKJJxZ4joR4t8aZVU0F_g",
      "name": "Bio Fuel Lanka",
      "address": "08 Dr. NM Perera Mawatha Road, Colombo",
      "location": {
        "lat": 6.914307300000001,
        "lng": 79.8781607
      },
      "rating": 5,
      "user_ratings_total": 1,
      "business_status": "OPERATIONAL",
      "types": [
        "gas_station",
        "point_of_interest",
        "establishment"
      ],
      "opening_hours": null
    },
    {
      "place_id": "ChIJP39fnAZF4joR_C9KfRTd1q0",
      "name": "BKS Filling Station (PVT) LTD",
      "address": "133 Galle Road New Deviation, Moratuwa",
      "location": {
        "lat": 6.7770709,
        "lng": 79.8821229
      },
      "rating": 4.3,
      "user_ratings_total": 120,
      "business_status": "OPERATIONAL",
      "types": [
        "gas_station",
        "point_of_interest",
        "establishment"
      ],
      "opening_hours": {
        "open_now": true
      }
    },
    {
      "place_id": "ChIJmZ_bCQBZ4joRfm35zRUnLs4",
      "name": "Bluetooth speaker repair",
      "address": "WVPC+WP2, Colombo",
      "location": {
        "lat": 6.9372716,
        "lng": 79.87175119999999
      },
      "rating": 5,
      "user_ratings_total": 1,
      "business_status": "OPERATIONAL",
      "types": [
        "gas_station",
        "point_of_interest",
        "establishment"
      ],
      "opening_hours": {
        "open_now": true
      }
    },
    {
      "place_id": "ChIJd3R6w3il5joRRgTt4Z9d05U",
      "name": "Bolana Filling Station",
      "address": "3rd Mile Post, Ridiyagama Road, Bolana",
      "location": {
        "lat": 6.163756899999999,
        "lng": 81.0046314
      },
      "rating": 4.6,
      "user_ratings_total": 11,
      "business_status": "OPERATIONAL",
      "types": [
        "gas_station",
        "point_of_interest",
        "establishment"
      ],
      "opening_hours": {
        "open_now": true
      }
    },
    {
      "place_id": "ChIJaTlVYlw14joRHkNOpTbrb2I",
      "name": "Bombuwala Lanka Filling Station",
      "address": "H2G9+PFH, Bombuwala",
      "location": {
        "lat": 6.576805799999999,
        "lng": 80.0187274
      },
      "rating": 4.5,
      "user_ratings_total": 20,
      "business_status": "OPERATIONAL",
      "types": [
        "gas_station",
        "point_of_interest",
        "establishment"
      ],
      "opening_hours": {
        "open_now": true
      }
    },
    {
      "place_id": "ChIJgSept5Ba4joR2h7e3eUh388",
      "name": "Boralesgamuwa Petrol Station",
      "address": "27/8B Lake Road, Boralesgamuwa",
      "location": {
        "lat": 6.841784100000001,
        "lng": 79.9068327
      },
      "rating": 3.8,
      "user_ratings_total": 241,
      "business_status": "OPERATIONAL",
      "types": [
        "gas_station",
        "point_of_interest",
        "establishment"
      ],
      "opening_hours": {
        "open_now": true
      }
    },
    {
      "place_id": "ChIJpWxT6WnD4joRhpNhK9Bd21Q",
      "name": "Bothalegama Fuel Station",
      "address": "9V7J+F6P, Bothalegama",
      "location": {
        "lat": 7.363719400000003,
        "lng": 79.88059369999999
      },
      "rating": 3.8,
      "user_ratings_total": 70,
      "business_status": "OPERATIONAL",
      "types": [
        "gas_station",
        "point_of_interest",
        "establishment"
      ],
      "opening_hours": {
        "open_now": true
      }
    },
    {
      "place_id": "ChIJozVjTuMh4zoRtizBq4mSEqw",
      "name": "Boyawalana Stores",
      "address": "85MG+XF9, Alawwa - Maharagama Road, Boyawalana",
      "location": {
        "lat": 7.3349014,
        "lng": 80.1762438
      },
      "rating": 3.2,
      "user_ratings_total": 5,
      "business_status": "OPERATIONAL",
      "types": [
        "gas_station",
        "point_of_interest",
        "establishment"
      ],
      "opening_hours": null
    },
    {
      "place_id": "ChIJB4Adua_v4joR1M8anppRIvQ",
      "name": "Brian Gas Centre",
      "address": "6R2W+686, Fifth Lane, Negombo",
      "location": {
        "lat": 7.200538099999999,
        "lng": 79.8457648
      },
      "rating": 4.3,
      "user_ratings_total": 3,
      "business_status": "OPERATIONAL",
      "types": [
        "gas_station",
        "point_of_interest",
        "establishment"
      ],
      "opening_hours": null
    },
    {
      "place_id": "ChIJqRHHzOYZ5ToRqMJzD-iorqI",
      "name": "Browns Fuel Station",
      "address": "7MVP+665, A31, Ampara",
      "location": {
        "lat": 7.2930223,
        "lng": 81.6856241
      },
      "rating": 3.7,
      "user_ratings_total": 80,
      "business_status": "OPERATIONAL",
      "types": [
        "gas_station",
        "point_of_interest",
        "establishment"
      ],
      "opening_hours": {
        "open_now": true
      }
    },
    {
      "place_id": "ChIJF_lr_lRY4joRe9hAuLqlSIA",
      "name": "Buddhika Enterprices",
      "address": "WVVG+CXC, Stace Road, Colombo",
      "location": {
        "lat": 6.9435646,
        "lng": 79.8773911
      },
      "rating": null,
      "user_ratings_total": 0,
      "business_status": "OPERATIONAL",
      "types": [
        "gas_station",
        "point_of_interest",
        "establishment"
      ],
      "opening_hours": null
    },
    {
      "place_id": "ChIJV8bc8gfK4zoRWqVmfmX7hvU",
      "name": "Bulathsinhala Cooperative Filling Station",
      "address": "M52H+83F, Nagoda - Kalawellawa - Bellapitiya Road, Bulathsinhala",
      "location": {
        "lat": 6.650823399999999,
        "lng": 80.1776701
      },
      "rating": 3.8,
      "user_ratings_total": 21,
      "business_status": "OPERATIONAL",
      "types": [
        "gas_station",
        "point_of_interest",
        "establishment"
      ],
      "opening_hours": {
        "open_now": true
      }
    },
    {
      "place_id": "ChIJ5ealTQBB-zoRQmTr-QT4ZeQ",
      "name": "Buwaneka oil shop",
      "address": "No 15/25, Onegama",
      "location": {
        "lat": 7.977677699999999,
        "lng": 81.0920218
      },
      "rating": null,
      "user_ratings_total": 0,
      "business_status": "OPERATIONAL",
      "types": [
        "gas_station",
        "point_of_interest",
        "establishment"
      ],
      "opening_hours": {
        "open_now": true
      }
    },
    {
      "place_id": "ChIJQZEHfgBF4joRSrxTatg1O3U",
      "name": "Bv gas point",
      "address": "No 33, subasadaka mawatha, Galle Road New Deviation, Moratuwa",
      "location": {
        "lat": 6.7384657,
        "lng": 79.8937248
      },
      "rating": null,
      "user_ratings_total": 0,
      "business_status": "OPERATIONAL",
      "types": [
        "gas_station",
        "point_of_interest",
        "establishment"
      ],
      "opening_hours": {
        "open_now": true
      }
    },
    {
      "place_id": "ChIJterMmqpL4joRg0HRDIqKrFA",
      "name": "C K Wanniarachi filling station",
      "address": "6 B Illiba junction, Horana",
      "location": {
        "lat": 6.723958100000001,
        "lng": 80.0901892
      },
      "rating": 4.7,
      "user_ratings_total": 3,
      "business_status": "OPERATIONAL",
      "types": [
        "gas_station",
        "point_of_interest",
        "establishment"
      ],
      "opening_hours": {
        "open_now": true
      }
    },
    {
      "place_id": "ChIJR_ppkwBR4joRQ-th8b2131k",
      "name": "C N K Filling Station",
      "address": "7, 16 Piliyandala Road, Pannipitiya",
      "location": {
        "lat": 6.8319225,
        "lng": 79.9634521
      },
      "rating": 4.3,
      "user_ratings_total": 123,
      "business_status": "OPERATIONAL",
      "types": [
        "gas_station",
        "point_of_interest",
        "establishment"
      ],
      "opening_hours": {
        "open_now": false
      }
    },
    {
      "place_id": "ChIJS8mxcNpb4joRMnZ2KiR4hhY",
      "name": "C.F.DE MEL & SONS (PVT) LTD (CEYPETCO Lanka Fuel Filling Station)",
      "address": "VVR7+F68, Sri Sambuddhathva Jayanthi Mawatha, Colombo",
      "location": {
        "lat": 6.891174299999999,
        "lng": 79.86306359999999
      },
      "rating": 4.1,
      "user_ratings_total": 140,
      "business_status": "OPERATIONAL",
      "types": [
        "gas_station",
        "point_of_interest",
        "establishment"
      ],
      "opening_hours": {
        "open_now": true
      }
    },
    {
      "place_id": "ChIJHTv-WcRZ4joRqPViAMziaho",
      "name": "C.M.C. Fuel Station-Madampitiya",
      "address": "Colombo Municipal Council Garbage Ground, 12 Dhawalasingharama Mawatha, Colombo",
      "location": {
        "lat": 6.9615884,
        "lng": 79.8726707
      },
      "rating": 5,
      "user_ratings_total": 2,
      "business_status": "OPERATIONAL",
      "types": [
        "gas_station",
        "point_of_interest",
        "establishment"
      ],
      "opening_hours": {
        "open_now": true
      }
    },
    {
      "place_id": "ChIJGXPEXnkV_DoR8bI7OX5ewdA",
      "name": "C.Paramanathan Lanka Filling Station",
      "address": "07 1st Cross Street, Vavuniya",
      "location": {
        "lat": 8.753351799999999,
        "lng": 80.49829869999999
      },
      "rating": 3,
      "user_ratings_total": 1,
      "business_status": "OPERATIONAL",
      "types": [
        "gas_station",
        "point_of_interest",
        "establishment"
      ],
      "opening_hours": null
    },
    {
      "place_id": "ChIJBTiBLQBR4joRYvf0k9puzIg",
      "name": "C&A Sinopec Filling Station Mattegoda",
      "address": "9 Mattegoda Road, Pannipitiya",
      "location": {
        "lat": 6.8262104,
        "lng": 79.96766389999999
      },
      "rating": 4,
      "user_ratings_total": 1,
      "business_status": "OPERATIONAL",
      "types": [
        "gas_station",
        "point_of_interest",
        "establishment"
      ],
      "opening_hours": null
    },
    {
      "place_id": "ChIJJTgwg_xX4joRLCwubIhuzfU",
      "name": "Cabral Filling Station - Kiribathgoda",
      "address": "No:105 Kandy Road, Kiribathgoda",
      "location": {
        "lat": 6.9795737,
        "lng": 79.928329
      },
      "rating": 3.6,
      "user_ratings_total": 40,
      "business_status": "OPERATIONAL",
      "types": [
        "gas_station",
        "point_of_interest",
        "establishment"
      ],
      "opening_hours": {
        "open_now": true
      }
    },
    {
      "place_id": "ChIJ3fC5m5wZ5DoRbWpqqNCzP4s",
      "name": "Caltex",
      "address": "C4PJ+4CP, Thanamalwila",
      "location": {
        "lat": 6.4353495,
        "lng": 81.13106259999999
      },
      "rating": null,
      "user_ratings_total": 0,
      "business_status": "OPERATIONAL",
      "types": [
        "gas_station",
        "point_of_interest",
        "establishment"
      ],
      "opening_hours": null
    },
    {
      "place_id": "ChIJM5fmTwpG4joRNQF8jFGyoxE",
      "name": "Caltex",
      "address": "Sri Lanka",
      "location": {
        "lat": 6.7281207,
        "lng": 79.9004073
      },
      "rating": null,
      "user_ratings_total": 0,
      "business_status": "OPERATIONAL",
      "types": [
        "gas_station",
        "point_of_interest",
        "establishment"
      ],
      "opening_hours": null
    },
    {
      "place_id": "ChIJT7RBbgfD4joRe5ggisFi500",
      "name": "Caltex",
      "address": "Sri Lanka",
      "location": {
        "lat": 7.373439499999998,
        "lng": 79.8754398
      },
      "rating": null,
      "user_ratings_total": 0,
      "business_status": "OPERATIONAL",
      "types": [
        "gas_station",
        "point_of_interest",
        "establishment"
      ],
      "opening_hours": null
    },
    {
      "place_id": "ChIJFeHDLXQ54ToR0ikmTqc3PKc",
      "name": "Caltex Oil Mart",
      "address": "XJ73+X8G, Kekanadura",
      "location": {
        "lat": 5.9649444,
        "lng": 80.6033152
      },
      "rating": 4.3,
      "user_ratings_total": 3,
      "business_status": "OPERATIONAL",
      "types": [
        "gas_station",
        "point_of_interest",
        "establishment"
      ],
      "opening_hours": {
        "open_now": true
      }
    },
    {
      "place_id": "ChIJB7K8Eft75DoRmbzs3ELtdRA",
      "name": "Caltex Star Lube",
      "address": "WW64+9C2, Welimada",
      "location": {
        "lat": 6.9108768,
        "lng": 80.9060154
      },
      "rating": 5,
      "user_ratings_total": 1,
      "business_status": "OPERATIONAL",
      "types": [
        "gas_station",
        "point_of_interest",
        "establishment"
      ],
      "opening_hours": {
        "open_now": true
      }
    },
    {
      "place_id": "ChIJU3JNfgBZ4joRi40BQKTpU1U",
      "name": "Campus",
      "address": "212 Bauddhaloka Mawatha, Colombo",
      "location": {
        "lat": 6.8986684,
        "lng": 79.8633488
      },
      "rating": null,
      "user_ratings_total": 0,
      "business_status": "OPERATIONAL",
      "types": [
        "gas_station",
        "point_of_interest",
        "establishment"
      ],
      "opening_hours": null
    },
    {
      "place_id": "ChIJfTZ9LO4-5ToRyk1wz_AmWNs",
      "name": "Casimbawa Petrol Set",
      "address": "CR85+RC9, Kalmunai-Chavalakadai Road, Kalmunai",
      "location": {
        "lat": 7.4170327,
        "lng": 81.8085953
      },
      "rating": 4.1,
      "user_ratings_total": 18,
      "business_status": "OPERATIONAL",
      "types": [
        "gas_station",
        "point_of_interest",
        "establishment"
      ],
      "opening_hours": {
        "open_now": true
      }
    },
    {
      "place_id": "ChIJgYwL8Qyl_DoRMmL8u2WJySE",
      "name": "CEB Charging Dambulla",
      "address": "Dambulla",
      "location": {
        "lat": 7.874217000000001,
        "lng": 80.6511287
      },
      "rating": null,
      "user_ratings_total": 0,
      "business_status": "OPERATIONAL",
      "types": [
        "gas_station",
        "point_of_interest",
        "establishment"
      ],
      "opening_hours": null
    },
    {
      "place_id": "ChIJNYm6S1YV4ToRWnt6IVpAZRo",
      "name": "Celon oxygen",
      "address": "XCGH+XG5, Weligama",
      "location": {
        "lat": 5.9773782,
        "lng": 80.4288487
      },
      "rating": null,
      "user_ratings_total": 0,
      "business_status": "OPERATIONAL",
      "types": [
        "gas_station",
        "point_of_interest",
        "establishment"
      ],
      "opening_hours": null
    },
    {
      "place_id": "ChIJ-0Rf9Zo95ToRxQ7snIg5yNg",
      "name": "Centralcamp Filling station",
      "address": "B440",
      "location": {
        "lat": 7.418055,
        "lng": 81.72710409999999
      },
      "rating": 3,
      "user_ratings_total": 6,
      "business_status": "OPERATIONAL",
      "types": [
        "gas_station",
        "point_of_interest",
        "establishment"
      ],
      "opening_hours": {
        "open_now": true
      }
    },
    {
      "place_id": "ChIJ9zoW6IZL4ToRBIznBMggMZU",
      "name": "cepetco beliata",
      "address": "3P2M+2HH, Beliatta",
      "location": {
        "lat": 6.0500526,
        "lng": 80.7339938
      },
      "rating": 5,
      "user_ratings_total": 1,
      "business_status": "OPERATIONAL",
      "types": [
        "gas_station",
        "point_of_interest",
        "establishment"
      ],
      "opening_hours": null
    },
    {
      "place_id": "ChIJPbI1TQA34joRudzwh12y0O4",
      "name": "Cepetco Filling Station",
      "address": "400 Galle - Colombo Road, Wadduwa",
      "location": {
        "lat": 6.5945249,
        "lng": 79.9589421
      },
      "rating": null,
      "user_ratings_total": 0,
      "business_status": "OPERATIONAL",
      "types": [
        "gas_station",
        "point_of_interest",
        "establishment"
      ],
      "opening_hours": null
    },
    {
      "place_id": "ChIJRQKMzWpm5DoRdg_ttzViOIc",
      "name": "Cepetco Filling Station",
      "address": "V35W+V5X, Ella - Passara Road, Balleketuwa",
      "location": {
        "lat": 6.859743099999999,
        "lng": 81.0954939
      },
      "rating": 3.8,
      "user_ratings_total": 26,
      "business_status": "OPERATIONAL",
      "types": [
        "gas_station",
        "point_of_interest",
        "establishment"
      ],
      "opening_hours": {
        "open_now": true
      }
    },
    {
      "place_id": "ChIJNfzlClYH4zoRSVjDEQvxDpQ",
      "name": "Cepetco Filling Station",
      "address": "25GQ+V27, Amithirigala",
      "location": {
        "lat": 7.0271555,
        "lng": 80.1875329
      },
      "rating": 3.8,
      "user_ratings_total": 23,
      "business_status": "OPERATIONAL",
      "types": [
        "gas_station",
        "point_of_interest",
        "establishment"
      ],
      "opening_hours": {
        "open_now": true
      }
    },
    {
      "place_id": "ChIJaxIJeKVX5DoR0jVHlYcmD8U",
      "name": "Cepetco Filling Station",
      "address": "X9HC+GWM, Mariarawa Rd,Dambagalla, Monaragala",
      "location": {
        "lat": 6.9788487,
        "lng": 81.37230799999999
      },
      "rating": 3.9,
      "user_ratings_total": 9,
      "business_status": "OPERATIONAL",
      "types": [
        "gas_station",
        "point_of_interest",
        "establishment"
      ],
      "opening_hours": {
        "open_now": true
      }
    },
    {
      "place_id": "ChIJvS2P6zRf4ToRH_3We_CIc4w",
      "name": "CEPETCO Filling Station",
      "address": "7GWR+JVM, Galle-Deniyaya-Madampe Highway, Deniyaya",
      "location": {
        "lat": 6.2965909,
        "lng": 80.5421846
      },
      "rating": 4.3,
      "user_ratings_total": 30,
      "business_status": "OPERATIONAL",
      "types": [
        "gas_station",
        "point_of_interest",
        "establishment"
      ],
      "opening_hours": {
        "open_now": true
      }
    },
    {
      "place_id": "ChIJoVbLBJFE4ToRPhEQokQwAZY",
      "name": "CEPETCO Filling Station MPCS Ransegoda",
      "address": "4HG5+67P, Urubokka Road, Ransagoda",
      "location": {
        "lat": 6.125588399999999,
        "lng": 80.55818819999999
      },
      "rating": 4.3,
      "user_ratings_total": 41,
      "business_status": "OPERATIONAL",
      "types": [
        "gas_station",
        "point_of_interest",
        "establishment"
      ],
      "opening_hours": {
        "open_now": true
      }
    },
    {
      "place_id": "ChIJ95-Hi4ZX4ToRlLFlYdebxg0",
      "name": "Cepetco Filling Station Urubokka",
      "address": "Kotapola - Urubokka - Mulatiyana Road",
      "location": {
        "lat": 6.2885535,
        "lng": 80.6368361
      },
      "rating": 4.2,
      "user_ratings_total": 27,
      "business_status": "OPERATIONAL",
      "types": [
        "gas_station",
        "point_of_interest",
        "establishment"
      ],
      "opening_hours": {
        "open_now": true
      }
    },
    {
      "place_id": "ChIJsXaHTvKs5ToRYxcN18MwbC8",
      "name": "Cepetco Filling Station, Siyambalanduwa",
      "address": "WH42+MCQ, Colombo - Batticaloa Highway, Siyambalanduwa",
      "location": {
        "lat": 6.906701,
        "lng": 81.551112
      },
      "rating": 3.6,
      "user_ratings_total": 63,
      "business_status": "OPERATIONAL",
      "types": [
        "gas_station",
        "point_of_interest",
        "establishment"
      ],
      "opening_hours": {
        "open_now": true
      }
    },
    {
      "place_id": "ChIJsSgpvywg4zoRNRVKENiJX6s",
      "name": "CEPETCO Fuel Station",
      "address": "Giriulla",
      "location": {
        "lat": 7.336039799999999,
        "lng": 80.1417615
      },
      "rating": 4.3,
      "user_ratings_total": 52,
      "business_status": "OPERATIONAL",
      "types": [
        "gas_station",
        "point_of_interest",
        "establishment"
      ],
      "opening_hours": {
        "open_now": true
      }
    },
    {
      "place_id": "ChIJqTy2Wao34ToR4ac-7GqkOqE",
      "name": "Cepetco Fuel Station Dikwella Town",
      "address": "XM7V+GCR, Dikwella",
      "location": {
        "lat": 5.963828899999999,
        "lng": 80.6932356
      },
      "rating": 4.7,
      "user_ratings_total": 6,
      "business_status": "OPERATIONAL",
      "types": [
        "gas_station",
        "point_of_interest",
        "establishment"
      ],
      "opening_hours": null
    },
    {
      "place_id": "ChIJjTMNd_mX5DoRBDxx9m5TP9o",
      "name": "Cepetco Gas Station",
      "address": "8XQR+VPW, A26, Mahiyanganaya",
      "location": {
        "lat": 7.339727799999999,
        "lng": 80.9918312
      },
      "rating": 3.9,
      "user_ratings_total": 8,
      "business_status": "OPERATIONAL",
      "types": [
        "gas_station",
        "point_of_interest",
        "establishment"
      ],
      "opening_hours": null
    },
    {
      "place_id": "ChIJ-VegAwD74joR3k8wqvXdrIw",
      "name": "CEPETCO Gas Station Ganemulla - 2",
      "address": "3XC7+WM5, Ganemulla",
      "location": {
        "lat": 7.072224299999999,
        "lng": 79.964339
      },
      "rating": 5,
      "user_ratings_total": 1,
      "business_status": "OPERATIONAL",
      "types": [
        "gas_station",
        "point_of_interest",
        "establishment"
      ],
      "opening_hours": null
    },
    {
      "place_id": "ChIJR1tcXtMh4zoRWHaeqBWtfw4",
      "name": "Ceylon Oill Mart",
      "address": "84PV+4MX, Alawwa - Maharagama Road, Giriulla",
      "location": {
        "lat": 7.3353569,
        "lng": 80.1442391
      },
      "rating": 5,
      "user_ratings_total": 1,
      "business_status": "OPERATIONAL",
      "types": [
        "gas_station",
        "point_of_interest",
        "establishment"
      ],
      "opening_hours": {
        "open_now": true
      }
    },
    {
      "place_id": "ChIJ1ZIeOgBX4joRv_D2qy9yvcY",
      "name": "Ceylon Petroleum Corporation Refinery",
      "address": "XX94+6RF, Gonawala",
      "location": {
        "lat": 6.968051300000001,
        "lng": 79.9570411
      },
      "rating": 1,
      "user_ratings_total": 1,
      "business_status": "OPERATIONAL",
      "types": [
        "gas_station",
        "point_of_interest",
        "establishment"
      ],
      "opening_hours": null
    },
    {
      "place_id": "ChIJP9EX0o454zoRasSomS3u6KM",
      "name": "Ceylon Petroleum Storage Terminals Ltd",
      "address": "F9GC+MP6, Kurunegala",
      "location": {
        "lat": 7.4766671,
        "lng": 80.37177229999999
      },
      "rating": 4.2,
      "user_ratings_total": 13,
      "business_status": "OPERATIONAL",
      "types": [
        "gas_station",
        "point_of_interest",
        "establishment"
      ],
      "opening_hours": null
    },
    {
      "place_id": "ChIJAXiVjKcU4ToRn6TwE-D7xMg",
      "name": "Ceypetco",
      "address": "X9C8+J97, A2, Ahangama",
      "location": {
        "lat": 5.971537599999999,
        "lng": 80.3659265
      },
      "rating": 1.2,
      "user_ratings_total": 31,
      "business_status": "OPERATIONAL",
      "types": [
        "gas_station",
        "point_of_interest",
        "establishment"
      ],
      "opening_hours": null
    },
    {
      "place_id": "ChIJM3o0oLtt4ToRIDUBD7dTLsE",
      "name": "Ceypetco",
      "address": "Bogahagoda Fuel Station, A17, Angulugaha",
      "location": {
        "lat": 6.0369075,
        "lng": 80.3060565
      },
      "rating": 4.2,
      "user_ratings_total": 21,
      "business_status": "OPERATIONAL",
      "types": [
        "gas_station",
        "point_of_interest",
        "establishment"
      ],
      "opening_hours": {
        "open_now": true
      }
    },
    {
      "place_id": "ChIJBQn8KhNw4ToRYtZOJsKHnaA",
      "name": "Ceypetco",
      "address": "Wanduramba Fuel Station, Wanduramba",
      "location": {
        "lat": 6.134994300000001,
        "lng": 80.2547225
      },
      "rating": null,
      "user_ratings_total": 0,
      "business_status": "OPERATIONAL",
      "types": [
        "gas_station",
        "point_of_interest",
        "establishment"
      ],
      "opening_hours": null
    },
    {
      "place_id": "ChIJD9uDaiBO4ToRIJUzmQ5aBYE",
      "name": "Ceypetco",
      "address": "5M3X+X39, Beliatta - Walasmulla Road, Walasmulla",
      "location": {
        "lat": 6.1549033,
        "lng": 80.69772739999999
      },
      "rating": 3.6,
      "user_ratings_total": 25,
      "business_status": "OPERATIONAL",
      "types": [
        "gas_station",
        "point_of_interest",
        "establishment"
      ],
      "opening_hours": null
    },
    {
      "place_id": "ChIJBce1-bN44ToRB6OwNwnBRRA",
      "name": "Ceypetco",
      "address": "64F7+WWC, Batapola",
      "location": {
        "lat": 6.224809,
        "lng": 80.1147501
      },
      "rating": 5,
      "user_ratings_total": 2,
      "business_status": "OPERATIONAL",
      "types": [
        "gas_station",
        "point_of_interest",
        "establishment"
      ],
      "opening_hours": {
        "open_now": true
      }
    },
    {
      "place_id": "ChIJPa5-e5xd4ToR9FV5JW3qtNg",
      "name": "Ceypetco",
      "address": "5FX9+GMF, Pitabeddara",
      "location": {
        "lat": 6.1988111,
        "lng": 80.4691737
      },
      "rating": 5,
      "user_ratings_total": 1,
      "business_status": "OPERATIONAL",
      "types": [
        "gas_station",
        "point_of_interest",
        "establishment"
      ],
      "opening_hours": null
    },
    {
      "place_id": "ChIJxx0VUT0u4joRWAl3P5ehAxM",
      "name": "Ceypetco",
      "address": "Sri Lanka",
      "location": {
        "lat": 6.4680423,
        "lng": 79.9859597
      },
      "rating": 2,
      "user_ratings_total": 1,
      "business_status": "OPERATIONAL",
      "types": [
        "gas_station",
        "point_of_interest",
        "establishment"
      ],
      "opening_hours": null
    },
    {
      "place_id": "ChIJwckvRSsx4joRqR9jZienEuM",
      "name": "Ceypetco",
      "address": "Katukurunda Lanka Filing Station, A2, Kalutara",
      "location": {
        "lat": 6.562053499999999,
        "lng": 79.96889399999999
      },
      "rating": 4.2,
      "user_ratings_total": 13,
      "business_status": "OPERATIONAL",
      "types": [
        "gas_station",
        "point_of_interest",
        "establishment"
      ],
      "opening_hours": null
    },
    {
      "place_id": "ChIJf64Fmd7-4joRkp4I_0qvG5s",
      "name": "Ceypetco",
      "address": "429 New Kandy Road, Weliweriya",
      "location": {
        "lat": 7.0340373,
        "lng": 80.0271528
      },
      "rating": 3,
      "user_ratings_total": 2,
      "business_status": "OPERATIONAL",
      "types": [
        "gas_station",
        "point_of_interest",
        "establishment"
      ],
      "opening_hours": null
    },
    {
      "place_id": "ChIJDbSJb8pv4zoR0GiqQXxhqUk",
      "name": "Ceypetco",
      "address": "5HQR+JPR, Doluwa",
      "location": {
        "lat": 7.189103299999999,
        "lng": 80.5917575
      },
      "rating": null,
      "user_ratings_total": 0,
      "business_status": "OPERATIONAL",
      "types": [
        "gas_station",
        "point_of_interest",
        "establishment"
      ],
      "opening_hours": null
    },
    {
      "place_id": "ChIJzZyDIugd4zoR2ISnt9s1gdM",
      "name": "Ceypetco",
      "address": "64J9+PX9, Mirigama",
      "location": {
        "lat": 7.231795399999999,
        "lng": 80.1199702
      },
      "rating": 5,
      "user_ratings_total": 2,
      "business_status": "OPERATIONAL",
      "types": [
        "gas_station",
        "point_of_interest",
        "establishment"
      ],
      "opening_hours": null
    },
    {
      "place_id": "ChIJN_DXf6Zj4zoRmjsAoQYzSHA",
      "name": "Ceypetco",
      "address": "Haragama Road, Mailapitiya",
      "location": {
        "lat": 7.219891,
        "lng": 80.751679
      },
      "rating": 4.3,
      "user_ratings_total": 52,
      "business_status": "OPERATIONAL",
      "types": [
        "gas_station",
        "point_of_interest",
        "establishment"
      ],
      "opening_hours": {
        "open_now": true
      }
    },
    {
      "place_id": "ChIJsfjshm7o4joRNBTCG0uOlKc",
      "name": "Ceypetco",
      "address": "Negombo-Kurunegala Road",
      "location": {
        "lat": 7.297206599999999,
        "lng": 79.9049462
      },
      "rating": null,
      "user_ratings_total": 0,
      "business_status": "OPERATIONAL",
      "types": [
        "gas_station",
        "point_of_interest",
        "establishment"
      ],
      "opening_hours": null
    },
    {
      "place_id": "ChIJB8UFDx3e4joR1nMO3bZA0dM",
      "name": "Ceypetco",
      "address": "Bus Station, Pannala Police Station Road, Pannala",
      "location": {
        "lat": 7.328732599999999,
        "lng": 80.0222525
      },
      "rating": 4.3,
      "user_ratings_total": 6,
      "business_status": "OPERATIONAL",
      "types": [
        "gas_station",
        "point_of_interest",
        "establishment"
      ],
      "opening_hours": {
        "open_now": true
      }
    },
    {
      "place_id": "ChIJU7w_WHbg4joRtv6Bc1OHzGU",
      "name": "Ceypetco",
      "address": "83G9+47H, Bopitiya",
      "location": {
        "lat": 7.3253126,
        "lng": 80.06824139999999
      },
      "rating": 5,
      "user_ratings_total": 1,
      "business_status": "OPERATIONAL",
      "types": [
        "gas_station",
        "point_of_interest",
        "establishment"
      ],
      "opening_hours": {
        "open_now": true
      }
    },
    {
      "place_id": "ChIJsU5x99pD4zoRFHLpUdTdVFs",
      "name": "Ceypetco",
      "address": "9HV2+FXC, Bokkawala",
      "location": {
        "lat": 7.393692300000001,
        "lng": 80.5523753
      },
      "rating": null,
      "user_ratings_total": 0,
      "business_status": "OPERATIONAL",
      "types": [
        "gas_station",
        "point_of_interest",
        "establishment"
      ],
      "opening_hours": null
    },
    {
      "place_id": "ChIJa8GYmrk_5ToRwPjDulYX6zQ",
      "name": "Ceypetco",
      "address": "9RQP+R5P, Aalim Road, Sainthamaruthu",
      "location": {
        "lat": 7.3895987,
        "lng": 81.8354404
      },
      "rating": null,
      "user_ratings_total": 0,
      "business_status": "OPERATIONAL",
      "types": [
        "gas_station",
        "point_of_interest",
        "establishment"
      ],
      "opening_hours": null
    },
    {
      "place_id": "ChIJnbOHYo8m4zoRFdgdtCmG11Y",
      "name": "Ceypetco",
      "address": "F52G+FH5, Horombawa",
      "location": {
        "lat": 7.451141500000001,
        "lng": 80.1764932
      },
      "rating": null,
      "user_ratings_total": 0,
      "business_status": "OPERATIONAL",
      "types": [
        "gas_station",
        "point_of_interest",
        "establishment"
      ],
      "opening_hours": null
    },
    {
      "place_id": "ChIJR99nFoc74zoRcnkQaev-c9k",
      "name": "Ceypetco",
      "address": "132 Wadakada Road, Pothuhera",
      "location": {
        "lat": 7.420720500000001,
        "lng": 80.3284046
      },
      "rating": 3.3,
      "user_ratings_total": 3,
      "business_status": "OPERATIONAL",
      "types": [
        "gas_station",
        "point_of_interest",
        "establishment"
      ],
      "opening_hours": null
    },
    {
      "place_id": "ChIJjaVyiQA54zoRp9qRzVThcFs",
      "name": "Ceypetco",
      "address": "FC74+2X2, Kurunegala",
      "location": {
        "lat": 7.4625194,
        "lng": 80.4073975
      },
      "rating": 5,
      "user_ratings_total": 2,
      "business_status": "OPERATIONAL",
      "types": [
        "gas_station",
        "point_of_interest",
        "establishment"
      ],
      "opening_hours": null
    },
    {
      "place_id": "ChIJGQeo1e4t4zoRHOuDS6RTlp0",
      "name": "Ceypetco",
      "address": "J726+R3M, Mahakeliya",
      "location": {
        "lat": 7.602078799999999,
        "lng": 80.2601859
      },
      "rating": 5,
      "user_ratings_total": 1,
      "business_status": "CLOSED_TEMPORARILY",
      "types": [
        "gas_station",
        "point_of_interest",
        "establishment"
      ],
      "opening_hours": null
    },
    {
      "place_id": "ChIJCWw5q1gy4zoR9e5ejh4SrKs",
      "name": "Ceypetco",
      "address": "J8J3+VVC, Kudauyangalla",
      "location": {
        "lat": 7.6321756,
        "lng": 80.3046552
      },
      "rating": null,
      "user_ratings_total": 0,
      "business_status": "OPERATIONAL",
      "types": [
        "gas_station",
        "point_of_interest",
        "establishment"
      ],
      "opening_hours": null
    },
    {
      "place_id": "ChIJtflfcbAz5ToRZHuvnLKA0EE",
      "name": "Ceypetco",
      "address": "Sri Lanka",
      "location": {
        "lat": 7.649988700000001,
        "lng": 81.7454594
      },
      "rating": null,
      "user_ratings_total": 0,
      "business_status": "OPERATIONAL",
      "types": [
        "gas_station",
        "point_of_interest",
        "establishment"
      ],
      "opening_hours": null
    },
    {
      "place_id": "ChIJj1fhS9ut_DoRcl9C6vzOLbI",
      "name": "Ceypetco",
      "address": "QM56+FJF, Kandy - Jaffna Highway, Dambulla",
      "location": {
        "lat": 7.7586859,
        "lng": 80.66154209999999
      },
      "rating": 4,
      "user_ratings_total": 1,
      "business_status": "OPERATIONAL",
      "types": [
        "gas_station",
        "point_of_interest",
        "establishment"
      ],
      "opening_hours": null
    },
    {
      "place_id": "ChIJt1MZI1HU-joRAkf42PTmhFg",
      "name": "Ceypetco",
      "address": "QH28+JWF, Kayankudah",
      "location": {
        "lat": 7.7515701,
        "lng": 81.5672888
      },
      "rating": null,
      "user_ratings_total": 0,
      "business_status": "OPERATIONAL",
      "types": [
        "gas_station",
        "point_of_interest",
        "establishment"
      ],
      "opening_hours": {
        "open_now": true
      }
    },
    {
      "place_id": "ChIJwbO42vPT-joRp9W7RUkuDeM",
      "name": "Ceypetco",
      "address": "Sri Lanka",
      "location": {
        "lat": 7.772202199999999,
        "lng": 81.6109606
      },
      "rating": null,
      "user_ratings_total": 0,
      "business_status": "OPERATIONAL",
      "types": [
        "gas_station",
        "point_of_interest",
        "establishment"
      ],
      "opening_hours": null
    },
    {
      "place_id": "ChIJ2zTzz3C7_DoRL1s2oCtHhz4",
      "name": "Ceypetco",
      "address": "Sri Lanka",
      "location": {
        "lat": 7.927029899999998,
        "lng": 80.5944991
      },
      "rating": null,
      "user_ratings_total": 0,
      "business_status": "OPERATIONAL",
      "types": [
        "gas_station",
        "point_of_interest",
        "establishment"
      ],
      "opening_hours": null
    },
    {
      "place_id": "ChIJ-1FHFV5E-zoRV7GeYTr0V24",
      "name": "Ceypetco",
      "address": "Sri Lanka",
      "location": {
        "lat": 7.9266482,
        "lng": 81.03552429999999
      },
      "rating": 5,
      "user_ratings_total": 2,
      "business_status": "OPERATIONAL",
      "types": [
        "gas_station",
        "point_of_interest",
        "establishment"
      ],
      "opening_hours": null
    },
    {
      "place_id": "ChIJHagPYGbY-joRD46xTBOAbY8",
      "name": "Ceypetco",
      "address": "WG5M+FC3, Oddamavadi",
      "location": {
        "lat": 7.9086455,
        "lng": 81.53355429999999
      },
      "rating": 5,
      "user_ratings_total": 2,
      "business_status": "OPERATIONAL",
      "types": [
        "gas_station",
        "point_of_interest",
        "establishment"
      ],
      "opening_hours": null
    },
    {
      "place_id": "ChIJ7TWGN4Rn-zoRVVF_Y5K5rH4",
      "name": "Ceypetco",
      "address": "10 Post Office Road, Hingurakgoda",
      "location": {
        "lat": 8.0405568,
        "lng": 80.9505044
      },
      "rating": null,
      "user_ratings_total": 0,
      "business_status": "OPERATIONAL",
      "types": [
        "gas_station",
        "point_of_interest",
        "establishment"
      ],
      "opening_hours": null
    },
    {
      "place_id": "ChIJ3fUTlPrt_DoRDGAcxzoCYXs",
      "name": "Ceypetco",
      "address": "59MG+P9J, Talawa",
      "location": {
        "lat": 8.184325799999998,
        "lng": 80.3758866
      },
      "rating": null,
      "user_ratings_total": 0,
      "business_status": "OPERATIONAL",
      "types": [
        "gas_station",
        "point_of_interest",
        "establishment"
      ],
      "opening_hours": null
    },
    {
      "place_id": "ChIJk0qJ4sw44ToRH4Ewx82XUcI",
      "name": "CEYPETCO",
      "address": "Sri Lanka",
      "location": {
        "lat": 5.9574298,
        "lng": 80.5457761
      },
      "rating": null,
      "user_ratings_total": 0,
      "business_status": "OPERATIONAL",
      "types": [
        "gas_station",
        "point_of_interest",
        "establishment"
      ],
      "opening_hours": null
    },
    {
      "place_id": "ChIJT2LEUMh44ToRxoaLlEioABY",
      "name": "CEYPETCO",
      "address": "64CF+F4V, B143, Batapola",
      "location": {
        "lat": 6.2211909,
        "lng": 80.1227959
      },
      "rating": 4.6,
      "user_ratings_total": 11,
      "business_status": "OPERATIONAL",
      "types": [
        "gas_station",
        "point_of_interest",
        "establishment"
      ],
      "opening_hours": null
    },
    {
      "place_id": "ChIJQeklEPen5joRP6e1rorVe7g",
      "name": "CEYPETCO",
      "address": "Sri Lanka",
      "location": {
        "lat": 6.3261803,
        "lng": 81.0001041
      },
      "rating": 4.5,
      "user_ratings_total": 2,
      "business_status": "OPERATIONAL",
      "types": [
        "gas_station",
        "point_of_interest",
        "establishment"
      ],
      "opening_hours": null
    },
    {
      "place_id": "ChIJM_OEaYFO4joRw1fuYM9LYm8",
      "name": "CEYPETCO",
      "address": "Q2F2+7PF, Polgasowita",
      "location": {
        "lat": 6.773194800000001,
        "lng": 80.0017854
      },
      "rating": 5,
      "user_ratings_total": 2,
      "business_status": "OPERATIONAL",
      "types": [
        "gas_station",
        "point_of_interest",
        "establishment"
      ],
      "opening_hours": null
    },
    {
      "place_id": "ChIJ66d4gXGa4zoRNSuGtVIx014",
      "name": "CEYPETCO",
      "address": "RHPC+HQG, Maskeliya",
      "location": {
        "lat": 6.8364258,
        "lng": 80.5719423
      },
      "rating": 4,
      "user_ratings_total": 5,
      "business_status": "OPERATIONAL",
      "types": [
        "gas_station",
        "point_of_interest",
        "establishment"
      ],
      "opening_hours": null
    },
    {
      "place_id": "ChIJm9WwPnJZ4joRNbmmbNZY5kQ",
      "name": "CEYPETCO",
      "address": "Doctor CWW Kannangara Mawatha, Colombo",
      "location": {
        "lat": 6.9154987,
        "lng": 79.8650005
      },
      "rating": 4,
      "user_ratings_total": 470,
      "business_status": "OPERATIONAL",
      "types": [
        "gas_station",
        "point_of_interest",
        "establishment"
      ],
      "opening_hours": {
        "open_now": true
      }
    },
    {
      "place_id": "ChIJKc_K1_ZZ4joRJsf-lEBGDZo",
      "name": "CEYPETCO",
      "address": "WW34+Q4M, Sri Jayawardenepura Kotte",
      "location": {
        "lat": 6.9042157,
        "lng": 79.9051963
      },
      "rating": 4,
      "user_ratings_total": 1,
      "business_status": "OPERATIONAL",
      "types": [
        "gas_station",
        "point_of_interest",
        "establishment"
      ],
      "opening_hours": null
    },
    {
      "place_id": "ChIJ2ZoLTBDk4joRd997cOvL0rc",
      "name": "CEYPETCO",
      "address": "Sri Lanka",
      "location": {
        "lat": 7.228027999999998,
        "lng": 79.9958252
      },
      "rating": 5,
      "user_ratings_total": 1,
      "business_status": "OPERATIONAL",
      "types": [
        "gas_station",
        "point_of_interest",
        "establishment"
      ],
      "opening_hours": null
    },
    {
      "place_id": "ChIJG1PRqjRh4zoRC81wi5ZmceI",
      "name": "CEYPETCO",
      "address": "Sri Lanka",
      "location": {
        "lat": 7.2830258,
        "lng": 80.72146529999999
      },
      "rating": null,
      "user_ratings_total": 0,
      "business_status": "OPERATIONAL",
      "types": [
        "gas_station",
        "point_of_interest",
        "establishment"
      ],
      "opening_hours": null
    },
    {
      "place_id": "ChIJeVQ_M-EZ5ToR52clV5XxaTw",
      "name": "CEYPETCO",
      "address": "Sri Lanka",
      "location": {
        "lat": 7.293018800000001,
        "lng": 81.68574579999999
      },
      "rating": null,
      "user_ratings_total": 0,
      "business_status": "OPERATIONAL",
      "types": [
        "gas_station",
        "point_of_interest",
        "establishment"
      ],
      "opening_hours": null
    },
    {
      "place_id": "ChIJpwwA_ANW-zoRFKFfO5wfubQ",
      "name": "CEYPETCO",
      "address": "Sri Lanka",
      "location": {
        "lat": 7.7781813,
        "lng": 80.815281
      },
      "rating": null,
      "user_ratings_total": 0,
      "business_status": "OPERATIONAL",
      "types": [
        "gas_station",
        "point_of_interest",
        "establishment"
      ],
      "opening_hours": null
    },
    {
      "place_id": "ChIJez4S-lA5-zoROlp7y3iP_ek",
      "name": "CEYPETCO",
      "address": "Sri Lanka",
      "location": {
        "lat": 7.945231799999998,
        "lng": 81.24403559999999
      },
      "rating": null,
      "user_ratings_total": 0,
      "business_status": "OPERATIONAL",
      "types": [
        "gas_station",
        "point_of_interest",
        "establishment"
      ],
      "opening_hours": null
    },
    {
      "place_id": "ChIJ-WyoBsu9-zoRhGq570bWWYI",
      "name": "CEYPETCO",
      "address": "Sri Lanka",
      "location": {
        "lat": 8.628151199999998,
        "lng": 81.2053998
      },
      "rating": null,
      "user_ratings_total": 0,
      "business_status": "OPERATIONAL",
      "types": [
        "gas_station",
        "point_of_interest",
        "establishment"
      ],
      "opening_hours": null
    },
    {
      "place_id": "ChIJAbkztHQD_zoRDVsWlA_1QAs",
      "name": "CEYPETCO",
      "address": "Sri Lanka",
      "location": {
        "lat": 9.8275986,
        "lng": 80.23650359999999
      },
      "rating": null,
      "user_ratings_total": 0,
      "business_status": "OPERATIONAL",
      "types": [
        "gas_station",
        "point_of_interest",
        "establishment"
      ],
      "opening_hours": null
    },
    {
      "place_id": "ChIJ8dbqgx_r_joR1aHZ8TkaVy4",
      "name": "CEYPETCO - KARACHCHI NORTH MPCS LTD",
      "address": "CCP5+H5C, Paranthan-Mullaitivu Highway, Parantan",
      "location": {
        "lat": 9.4364358,
        "lng": 80.40788409999999
      },
      "rating": 3.3,
      "user_ratings_total": 23,
      "business_status": "OPERATIONAL",
      "types": [
        "gas_station",
        "point_of_interest",
        "establishment"
      ],
      "opening_hours": {
        "open_now": true
      }
    },
    {
      "place_id": "ChIJf0G0eNaU_joRC0MQ0vvHx84",
      "name": "CEYPETCO - Kilinochchi",
      "address": "Lanka Filling Station - Karaichchy South MPCS Ltd., Kandy - Jaffna Highway, Kilinochchi",
      "location": {
        "lat": 9.408345599999999,
        "lng": 80.40774669999999
      },
      "rating": 4.2,
      "user_ratings_total": 18,
      "business_status": "OPERATIONAL",
      "types": [
        "gas_station",
        "point_of_interest",
        "establishment"
      ],
      "opening_hours": {
        "open_now": true
      }
    },
    {
      "place_id": "ChIJURUCfHMq4joRiw6SR4Xo3TA",
      "name": "Ceypetco Ahungalle",
      "address": "12 Galle Road, Ahungalla",
      "location": {
        "lat": 6.3172386,
        "lng": 80.0336301
      },
      "rating": 4.4,
      "user_ratings_total": 9,
      "business_status": "OPERATIONAL",
      "types": [
        "gas_station",
        "point_of_interest",
        "establishment"
      ],
      "opening_hours": null
    },
    {
      "place_id": "ChIJhcVSiKxL4zoRdNOiPkMjTyA",
      "name": "Ceypetco Filing Station",
      "address": "MG28+PMQ, Ambepussa - Kurunegala - Trincomalee Highway, Melsiripura",
      "location": {
        "lat": 7.651828000000001,
        "lng": 80.516729
      },
      "rating": 4.5,
      "user_ratings_total": 36,
      "business_status": "OPERATIONAL",
      "types": [
        "gas_station",
        "point_of_interest",
        "establishment"
      ],
      "opening_hours": {
        "open_now": true
      }
    },
    {
      "place_id": "ChIJGb0cJQDv_DoR6HzHTZlt_gI",
      "name": "Ceypetco Filing Station",
      "address": "47WR+GRC, A28, Tambuttegama",
      "location": {
        "lat": 8.1463298,
        "lng": 80.2919922
      },
      "rating": 4.8,
      "user_ratings_total": 12,
      "business_status": "OPERATIONAL",
      "types": [
        "gas_station",
        "point_of_interest",
        "establishment"
      ],
      "opening_hours": {
        "open_now": true
      }
    },
    {
      "place_id": "ChIJNfP2WgAR5DoRAJYpMLCTU4Q",
      "name": "Ceypetco filling station",
      "address": "GXMQ+XH, Pokunutenna",
      "location": {
        "lat": 6.5348763,
        "lng": 80.9889391
      },
      "rating": null,
      "user_ratings_total": 0,
      "business_status": "OPERATIONAL",
      "types": [
        "gas_station",
        "point_of_interest",
        "establishment"
      ],
      "opening_hours": null
    },
    {
      "place_id": "ChIJD7kASy0P4zoRGF5Xp945Y-U",
      "name": "Ceypetco filling station",
      "address": "Kegalle-Bulathkohupitiya-Karawanella Highway",
      "location": {
        "lat": 7.1030276,
        "lng": 80.33427259999999
      },
      "rating": 3.1,
      "user_ratings_total": 11,
      "business_status": "OPERATIONAL",
      "types": [
        "gas_station",
        "point_of_interest",
        "establishment"
      ],
      "opening_hours": {
        "open_now": true
      }
    },
    {
      "place_id": "ChIJR65QOnHo_DoR7PNxaL8mH2o",
      "name": "Ceypetco filling station",
      "address": "27WM+X7J, Mahagalkadawala",
      "location": {
        "lat": 8.0474623,
        "lng": 80.28313589999999
      },
      "rating": 3.6,
      "user_ratings_total": 17,
      "business_status": "OPERATIONAL",
      "types": [
        "gas_station",
        "point_of_interest",
        "establishment"
      ],
      "opening_hours": {
        "open_now": true
      }
    },
    {
      "place_id": "ChIJ_6XMUDlR_DoRLfNeuF2tLfg",
      "name": "Ceypetco filling station",
      "address": "Pemaduwa, Mahawilachchiya",
      "location": {
        "lat": 8.4919186,
        "lng": 80.2006392
      },
      "rating": 3,
      "user_ratings_total": 4,
      "business_status": "OPERATIONAL",
      "types": [
        "gas_station",
        "point_of_interest",
        "establishment"
      ],
      "opening_hours": null
    },
    {
      "place_id": "ChIJtwtxgH8V_DoRHbW5z3VS0Oo",
      "name": "Ceypetco filling station",
      "address": "105 Kandy Road, Vavuniya",
      "location": {
        "lat": 8.7533102,
        "lng": 80.4980144
      },
      "rating": 3.7,
      "user_ratings_total": 3,
      "business_status": "OPERATIONAL",
      "types": [
        "gas_station",
        "point_of_interest",
        "establishment"
      ],
      "opening_hours": {
        "open_now": true
      }
    },
    {
      "place_id": "ChIJEyaf1gpZ-zoRwtOF440FIak",
      "name": "Ceypetco Filling station",
      "address": "WVQG+2V7, Diyabeduma",
      "location": {
        "lat": 7.937471,
        "lng": 80.877663
      },
      "rating": 4.7,
      "user_ratings_total": 9,
      "business_status": "OPERATIONAL",
      "types": [
        "gas_station",
        "point_of_interest",
        "establishment"
      ],
      "opening_hours": {
        "open_now": true
      }
    },
    {
      "place_id": "ChIJ-xLGrM5q_DoRlAmOdR01Dzc",
      "name": "Ceypetco Filling station",
      "address": "PF6J+5XW, A9, Vavuniya",
      "location": {
        "lat": 8.7104959,
        "lng": 80.4824653
      },
      "rating": 4.1,
      "user_ratings_total": 48,
      "business_status": "OPERATIONAL",
      "types": [
        "gas_station",
        "point_of_interest",
        "establishment"
      ],
      "opening_hours": {
        "open_now": true
      }
    },
    {
      "place_id": "ChIJ8aZNZ1I-4ToRa_N2MHvBG0Q",
      "name": "Ceypetco Filling Station",
      "address": "WFRQ+5R9, Kamburugamuwa",
      "location": {
        "lat": 5.9404058,
        "lng": 80.48960629999999
      },
      "rating": 3.8,
      "user_ratings_total": 76,
      "business_status": "OPERATIONAL",
      "types": [
        "gas_station",
        "point_of_interest",
        "establishment"
      ],
      "opening_hours": {
        "open_now": true
      }
    },
    {
      "place_id": "ChIJaVepJlUV4ToRoGtNxH544tY",
      "name": "Ceypetco Filling Station",
      "address": "XFM2+CX4, Matara",
      "location": {
        "lat": 5.9835245,
        "lng": 80.45245
      },
      "rating": 3.9,
      "user_ratings_total": 7,
      "business_status": "OPERATIONAL",
      "types": [
        "gas_station",
        "point_of_interest",
        "establishment"
      ],
      "opening_hours": {
        "open_now": true
      }
    },
    {
      "place_id": "ChIJ1UlR1thK4ToR_mUssK2T2wA",
      "name": "Ceypetco Filling Station",
      "address": "2QHV+VHH, Beliatta - Tangalle unata, Danketiya Road, Tangalle",
      "location": {
        "lat": 6.0296996,
        "lng": 80.793972
      },
      "rating": 3.7,
      "user_ratings_total": 106,
      "business_status": "OPERATIONAL",
      "types": [
        "gas_station",
        "point_of_interest",
        "establishment"
      ],
      "opening_hours": {
        "open_now": true
      }
    },
    {
      "place_id": "ChIJ1cYjBE-z5joRVw9IHDR_iEg",
      "name": "Ceypetco Filling Station",
      "address": "5V5W+6XJ, Ranna - Ebilipitiya Road, Agunukolapelessa",
      "location": {
        "lat": 6.158076499999999,
        "lng": 80.8973832
      },
      "rating": 5,
      "user_ratings_total": 10,
      "business_status": "OPERATIONAL",
      "types": [
        "gas_station",
        "point_of_interest",
        "establishment"
      ],
      "opening_hours": null
    },
    {
      "place_id": "ChIJJ9ejj4KB4ToRdzHFZTbzHIc",
      "name": "Ceypetco Filling Station",
      "address": "63P3+RM8, A2, Ambalangoda",
      "location": {
        "lat": 6.237039399999999,
        "lng": 80.0541973
      },
      "rating": 3.1,
      "user_ratings_total": 68,
      "business_status": "OPERATIONAL",
      "types": [
        "gas_station",
        "point_of_interest",
        "establishment"
      ],
      "opening_hours": {
        "open_now": true
      }
    },
    {
      "place_id": "ChIJPeHcl61_4ToRfTF0KYJOp2s",
      "name": "Ceypetco Filling Station",
      "address": "Mapalagama Road, Ethkandura",
      "location": {
        "lat": 6.248772599999999,
        "lng": 80.15000979999999
      },
      "rating": 3.5,
      "user_ratings_total": 11,
      "business_status": "OPERATIONAL",
      "types": [
        "gas_station",
        "point_of_interest",
        "establishment"
      ],
      "opening_hours": {
        "open_now": true
      }
    },
    {
      "place_id": "ChIJWb7SE0F-4ToRMlYmsmw1FwE",
      "name": "Ceypetco Filling Station",
      "address": "75Q6+VJ4, B14, Elpitiya",
      "location": {
        "lat": 6.289632299999999,
        "lng": 80.16156629999999
      },
      "rating": 3.8,
      "user_ratings_total": 131,
      "business_status": "OPERATIONAL",
      "types": [
        "gas_station",
        "point_of_interest",
        "establishment"
      ],
      "opening_hours": {
        "open_now": true
      }
    },
    {
      "place_id": "ChIJb5iAMzzi4zoR4oV67wfCk2E",
      "name": "Ceypetco Filling Station",
      "address": "8HW5+6PP, Deniyaya - Wiharahena Road, Deniyaya",
      "location": {
        "lat": 6.345584099999999,
        "lng": 80.5593189
      },
      "rating": 3.8,
      "user_ratings_total": 49,
      "business_status": "OPERATIONAL",
      "types": [
        "gas_station",
        "point_of_interest",
        "establishment"
      ],
      "opening_hours": {
        "open_now": true
      }
    },
    {
      "place_id": "ChIJOXsWrbKr5joRT966ImQpUh0",
      "name": "Ceypetco Filling Station",
      "address": "B486, Embilipitiya",
      "location": {
        "lat": 6.3109707,
        "lng": 80.8354775
      },
      "rating": 3.9,
      "user_ratings_total": 41,
      "business_status": "OPERATIONAL",
      "types": [
        "gas_station",
        "point_of_interest",
        "establishment"
      ],
      "opening_hours": {
        "open_now": true
      }
    },
    {
      "place_id": "ChIJk9z02mSd5joRP-zuECI5Jlg",
      "name": "Ceypetco Filling Station",
      "address": "88G4+XXH, Tissamaharama - Kataragama Road, Tissamaharama",
      "location": {
        "lat": 6.327443400000001,
        "lng": 81.3074769
      },
      "rating": 4,
      "user_ratings_total": 43,
      "business_status": "OPERATIONAL",
      "types": [
        "gas_station",
        "point_of_interest",
        "establishment"
      ],
      "opening_hours": {
        "open_now": true
      }
    },
    {
      "place_id": "ChIJAQBwzQUm5DoRyOHXa0yfd48",
      "name": "Ceypetco Filling Station",
      "address": "Fuel Station, Yala Rd, Kataragama",
      "location": {
        "lat": 6.4134616,
        "lng": 81.33156129999999
      },
      "rating": 4,
      "user_ratings_total": 71,
      "business_status": "OPERATIONAL",
      "types": [
        "gas_station",
        "point_of_interest",
        "establishment"
      ],
      "opening_hours": {
        "open_now": true
      }
    },
    {
      "place_id": "ChIJf9PQmwkm5DoRnm3rJcxtcXw",
      "name": "Ceypetco Filling Station",
      "address": "C88F+RQ9, Kandasuridugama Raja Mawatha, Kataragama",
      "location": {
        "lat": 6.4170279,
        "lng": 81.32449129999999
      },
      "rating": 4.1,
      "user_ratings_total": 61,
      "business_status": "OPERATIONAL",
      "types": [
        "gas_station",
        "point_of_interest",
        "establishment"
      ],
      "opening_hours": null
    },
    {
      "place_id": "ChIJsc33Rpcx4joRKBhmb8skN_g",
      "name": "Ceypetco Filling Station",
      "address": "246/3, Galle Road, Ethagama, Kalutara",
      "location": {
        "lat": 6.5479472,
        "lng": 79.9725167
      },
      "rating": 4,
      "user_ratings_total": 112,
      "business_status": "OPERATIONAL",
      "types": [
        "gas_station",
        "point_of_interest",
        "establishment"
      ],
      "opening_hours": {
        "open_now": true
      }
    },
    {
      "place_id": "ChIJt7mH8RLw4zoRsEX4huyyZFg",
      "name": "Ceypetco Filling Station",
      "address": "GM33+H3F, Godakawela",
      "location": {
        "lat": 6.5039355,
        "lng": 80.6526712
      },
      "rating": 4,
      "user_ratings_total": 32,
      "business_status": "OPERATIONAL",
      "types": [
        "gas_station",
        "point_of_interest",
        "establishment"
      ],
      "opening_hours": {
        "open_now": true
      }
    },
    {
      "place_id": "ChIJ2UwpyyA34joRPL-TkqrVucg",
      "name": "Ceypetco Filling Station",
      "address": "HXH6+CX8, A2, Kalutara",
      "location": {
        "lat": 6.578542199999999,
        "lng": 79.9624652
      },
      "rating": 4,
      "user_ratings_total": 100,
      "business_status": "OPERATIONAL",
      "types": [
        "gas_station",
        "point_of_interest",
        "establishment"
      ],
      "opening_hours": {
        "open_now": true
      }
    },
    {
      "place_id": "ChIJh8VPBJbL4zoRVzfAsZonLEg",
      "name": "Ceypetco Filling Station",
      "address": "I Block, 6°35'14. 80°09'32.9\"E, Galle Road, Colombo",
      "location": {
        "lat": 6.587244,
        "lng": 80.159128
      },
      "rating": 3.9,
      "user_ratings_total": 23,
      "business_status": "OPERATIONAL",
      "types": [
        "gas_station",
        "point_of_interest",
        "establishment"
      ],
      "opening_hours": {
        "open_now": true
      }
    },
    {
      "place_id": "ChIJfyfN-XTq4zoR8jiXfS-1-7k",
      "name": "Ceypetco Filling Station",
      "address": "HFW5+C84, Tiruwanaketiya-Agalawatte Road, Nivithigala",
      "location": {
        "lat": 6.596,
        "lng": 80.4583244
      },
      "rating": null,
      "user_ratings_total": 0,
      "business_status": "OPERATIONAL",
      "types": [
        "gas_station",
        "point_of_interest",
        "establishment"
      ],
      "opening_hours": {
        "open_now": true
      }
    },
    {
      "place_id": "ChIJxSvwzjk24joRqEgjyU82h6w",
      "name": "Ceypetco Filling Station",
      "address": "Kaluthara Horana Road, Waskaduwa",
      "location": {
        "lat": 6.6294764,
        "lng": 79.97552379999999
      },
      "rating": 3.9,
      "user_ratings_total": 55,
      "business_status": "OPERATIONAL",
      "types": [
        "gas_station",
        "point_of_interest",
        "establishment"
      ],
      "opening_hours": {
        "open_now": true
      }
    },
    {
      "place_id": "ChIJQwq98UBJ4joRlgn9wMRL8IY",
      "name": "Ceypetco Filling Station",
      "address": "PX7Q+J9P, Bandaragama",
      "location": {
        "lat": 6.714075200000001,
        "lng": 79.98846060000001
      },
      "rating": 3.5,
      "user_ratings_total": 20,
      "business_status": "OPERATIONAL",
      "types": [
        "gas_station",
        "point_of_interest",
        "establishment"
      ],
      "opening_hours": null
    },
    {
      "place_id": "ChIJoWmY3rp25DoRl3KCfM9i5Xw",
      "name": "Ceypetco Filling Station",
      "address": "Haldummulla, Colombo - Batticaloa Highway",
      "location": {
        "lat": 6.761373499999999,
        "lng": 80.8851296
      },
      "rating": 3.9,
      "user_ratings_total": 55,
      "business_status": "OPERATIONAL",
      "types": [
        "gas_station",
        "point_of_interest",
        "establishment"
      ],
      "opening_hours": {
        "open_now": true
      }
    },
    {
      "place_id": "ChIJhVjOt9xa4joROMW92JIsFJ4",
      "name": "Ceypetco Filling Station",
      "address": "RVJP+J29, Ratmalana - Attidiya Road, Dehiwala-Mount Lavinia",
      "location": {
        "lat": 6.831547700000001,
        "lng": 79.88509739999999
      },
      "rating": 3.8,
      "user_ratings_total": 229,
      "business_status": "OPERATIONAL",
      "types": [
        "gas_station",
        "point_of_interest",
        "establishment"
      ],
      "opening_hours": {
        "open_now": true
      }
    },
    {
      "place_id": "ChIJrRDmBPRR4joRCRqeE_3CAIE",
      "name": "Ceypetco Filling Station",
      "address": "R2M3+7G6, Homagama-Diyagama Road, Homagama",
      "location": {
        "lat": 6.8331637,
        "lng": 80.00375120000001
      },
      "rating": 3.9,
      "user_ratings_total": 183,
      "business_status": "OPERATIONAL",
      "types": [
        "gas_station",
        "point_of_interest",
        "establishment"
      ],
      "opening_hours": {
        "open_now": true
      }
    },
    {
      "place_id": "ChIJHy5pgada5DoRw4R21F1d67M",
      "name": "Ceypetco Filling Station",
      "address": "V84Q+CV8, Colombo - Batticaloa Highway, Hulandawa",
      "location": {
        "lat": 6.856025199999999,
        "lng": 81.3397103
      },
      "rating": 4.3,
      "user_ratings_total": 73,
      "business_status": "OPERATIONAL",
      "types": [
        "gas_station",
        "point_of_interest",
        "establishment"
      ],
      "opening_hours": {
        "open_now": true
      }
    },
    {
      "place_id": "ChIJ-fj0CkVa4joRd7LDDLcgqKU",
      "name": "Ceypetco Filling Station",
      "address": "169 High Level Road, Nugegoda",
      "location": {
        "lat": 6.8698428,
        "lng": 79.8872442
      },
      "rating": 3.8,
      "user_ratings_total": 136,
      "business_status": "OPERATIONAL",
      "types": [
        "gas_station",
        "point_of_interest",
        "establishment"
      ],
      "opening_hours": null
    },
    {
      "place_id": "ChIJp86O6TBX4joRfjDYWTjcx14",
      "name": "Ceypetco Filling Station",
      "address": "Kaduwela",
      "location": {
        "lat": 6.913312499999999,
        "lng": 80.00156249999999
      },
      "rating": 4.8,
      "user_ratings_total": 12,
      "business_status": "OPERATIONAL",
      "types": [
        "gas_station",
        "point_of_interest",
        "establishment"
      ],
      "opening_hours": {
        "open_now": true
      }
    },
    {
      "place_id": "ChIJTb6XlPJZ4joRGukp0zfmwUA",
      "name": "Ceypetco Filling Station",
      "address": "WV5X+FC5, Sri Jayawardenepura Kotte",
      "location": {
        "lat": 6.908647500000001,
        "lng": 79.8986073
      },
      "rating": 3,
      "user_ratings_total": 55,
      "business_status": "OPERATIONAL",
      "types": [
        "gas_station",
        "point_of_interest",
        "establishment"
      ],
      "opening_hours": null
    },
    {
      "place_id": "ChIJvZmY-ylV4joRhSZD8HVB0OM",
      "name": "Ceypetco Filling Station",
      "address": "W3WR+9Q6, Hanwella - Kirindiwela - Urapola Road, Hanwella",
      "location": {
        "lat": 6.945910599999999,
        "lng": 80.0918854
      },
      "rating": 3.7,
      "user_ratings_total": 36,
      "business_status": "OPERATIONAL",
      "types": [
        "gas_station",
        "point_of_interest",
        "establishment"
      ],
      "opening_hours": {
        "open_now": true
      }
    },
    {
      "place_id": "ChIJ0WOQbX_34joRGQEQoWK4M9I",
      "name": "Ceypetco Filling Station",
      "address": "2WH8+586, Ragama",
      "location": {
        "lat": 7.0279231,
        "lng": 79.9157658
      },
      "rating": 3.8,
      "user_ratings_total": 186,
      "business_status": "OPERATIONAL",
      "types": [
        "gas_station",
        "point_of_interest",
        "establishment"
      ],
      "opening_hours": {
        "open_now": true
      }
    },
    {
      "place_id": "ChIJnfiGzMbw4joRoKhMIkqrCp0",
      "name": "Ceypetco Filling Station",
      "address": "3VMV+R68, Ja-Ela",
      "location": {
        "lat": 7.084525600000001,
        "lng": 79.89306359999999
      },
      "rating": 4.1,
      "user_ratings_total": 48,
      "business_status": "OPERATIONAL",
      "types": [
        "gas_station",
        "point_of_interest",
        "establishment"
      ],
      "opening_hours": {
        "open_now": true
      }
    },
    {
      "place_id": "ChIJ91uljej94joRBLOp5F1FYDg",
      "name": "Ceypetco Filling Station",
      "address": "IOC Filling Station, Warana Road, Nelligahamula",
      "location": {
        "lat": 7.084430599999999,
        "lng": 80.0791718
      },